[
  {
    "id": "ST0001",
    "name": "HyperRetail San Jose Market",
    "region": "East",
    "city": "Philadelphia",
    "address": "2551 Manor Drive",
    "sqft": 39567,
    "openDate": "2019-07-27",
    "manager": "Dr. Lance Jacobson",
    "status": "active",
    "lat": 68.4567,
    "lng": -71.8238
  },
  {
    "id": "ST0002",
    "name": "HyperRetail San Antonio Mall",
    "region": "East",
    "city": "San Diego",
    "address": "5273 Alivia Summit",
    "sqft": 81821,
    "openDate": "2018-09-21",
    "manager": "Elbert Cole V",
    "status": "maintenance",
    "lat": 17.8417,
    "lng": 79.9716
  },
  {
    "id": "ST0003",
    "name": "HyperRetail Houston Center",
    "region": "East",
    "city": "Dallas",
    "address": "27751 Penelope Port",
    "sqft": 55850,
    "openDate": "2021-02-28",
    "manager": "Steven Wisozk",
    "status": "maintenance",
    "lat": -6.7184,
    "lng": 4.6449
  },
  {
    "id": "ST0004",
    "name": "HyperRetail San Jose Plaza",
    "region": "East",
    "city": "San Diego",
    "address": "553 Kulas Forges",
    "sqft": 87918,
    "openDate": "2023-10-18",
    "manager": "Lucas Howe",
    "status": "active",
    "lat": 75.3723,
    "lng": -2.7628
  },
  {
    "id": "ST0005",
    "name": "HyperRetail Houston Center",
    "region": "West",
    "city": "Dallas",
    "address": "944 Shields Parks",
    "sqft": 119389,
    "openDate": "2019-12-01",
    "manager": "Mr. Simon Kreiger-Dooley Jr.",
    "status": "active",
    "lat": -89.4298,
    "lng": -21.9061
  },
  {
    "id": "ST0006",
    "name": "HyperRetail San Antonio Market",
    "region": "South",
    "city": "Dallas",
    "address": "13824 Johnathon Walks",
    "sqft": 101457,
    "openDate": "2023-08-15",
    "manager": "Geoffrey Ruecker",
    "status": "maintenance",
    "lat": 33.79,
    "lng": -169.0022
  },
  {
    "id": "ST0007",
    "name": "HyperRetail San Diego Market",
    "region": "West",
    "city": "Philadelphia",
    "address": "62638 Grove Lane",
    "sqft": 56239,
    "openDate": "2018-07-02",
    "manager": "Dr. Jennie Schimmel-Altenwerth I",
    "status": "active",
    "lat": 89.0368,
    "lng": 118.249
  },
  {
    "id": "ST0008",
    "name": "HyperRetail New York Mall",
    "region": "North",
    "city": "New York",
    "address": "73867 Bryon Avenue",
    "sqft": 117946,
    "openDate": "2016-06-17",
    "manager": "Dr. Rufus Schowalter",
    "status": "active",
    "lat": 36.0062,
    "lng": 40.8975
  },
  {
    "id": "ST0009",
    "name": "HyperRetail Los Angeles Plaza",
    "region": "South",
    "city": "Phoenix",
    "address": "124 Larch Close",
    "sqft": 23184,
    "openDate": "2025-03-02",
    "manager": "Annette Brown",
    "status": "active",
    "lat": 13.8673,
    "lng": 161.1677
  },
  {
    "id": "ST0010",
    "name": "HyperRetail San Antonio Plaza",
    "region": "North",
    "city": "San Jose",
    "address": "58260 Jevon Street",
    "sqft": 123287,
    "openDate": "2023-05-29",
    "manager": "Ted Considine",
    "status": "active",
    "lat": -17.4828,
    "lng": 60.0676
  },
  {
    "id": "ST0011",
    "name": "HyperRetail Chicago Plaza",
    "region": "South",
    "city": "Dallas",
    "address": "48291 Gleason Union",
    "sqft": 22863,
    "openDate": "2022-08-12",
    "manager": "Clinton Fahey",
    "status": "active",
    "lat": -50.5307,
    "lng": 172.4333
  },
  {
    "id": "ST0012",
    "name": "HyperRetail New York Center",
    "region": "South",
    "city": "Houston",
    "address": "6711 S Pine Street",
    "sqft": 85401,
    "openDate": "2017-02-28",
    "manager": "Colleen Schuster",
    "status": "active",
    "lat": -77.0804,
    "lng": 49.3527
  },
  {
    "id": "ST0013",
    "name": "HyperRetail San Antonio Center",
    "region": "South",
    "city": "Phoenix",
    "address": "383 Field Close",
    "sqft": 91825,
    "openDate": "2020-03-13",
    "manager": "Dr. Samuel Von",
    "status": "active",
    "lat": -17.7398,
    "lng": -1.1896
  },
  {
    "id": "ST0014",
    "name": "HyperRetail Los Angeles Mall",
    "region": "Central",
    "city": "Los Angeles",
    "address": "670 Nella Island",
    "sqft": 61286,
    "openDate": "2024-10-19",
    "manager": "Paula Sawayn",
    "status": "active",
    "lat": -40.2895,
    "lng": 33.6549
  },
  {
    "id": "ST0015",
    "name": "HyperRetail San Diego Market",
    "region": "North",
    "city": "Philadelphia",
    "address": "503 Tristin Road",
    "sqft": 30753,
    "openDate": "2022-08-31",
    "manager": "Joe Hessel",
    "status": "active",
    "lat": 11.6972,
    "lng": 123.3763
  },
  {
    "id": "ST0016",
    "name": "HyperRetail Dallas Mall",
    "region": "East",
    "city": "San Diego",
    "address": "994 Vandervort Highway",
    "sqft": 69051,
    "openDate": "2016-06-20",
    "manager": "Pablo Buckridge",
    "status": "active",
    "lat": -1.1135,
    "lng": 23.2665
  },
  {
    "id": "ST0017",
    "name": "HyperRetail Houston Market",
    "region": "West",
    "city": "Dallas",
    "address": "701 Deontae Rapids",
    "sqft": 133817,
    "openDate": "2019-03-02",
    "manager": "Faith Rowe",
    "status": "maintenance",
    "lat": 31.6995,
    "lng": 72.9146
  },
  {
    "id": "ST0018",
    "name": "HyperRetail San Jose Mall",
    "region": "South",
    "city": "Los Angeles",
    "address": "8669 Bella Harbors",
    "sqft": 84814,
    "openDate": "2016-04-06",
    "manager": "Vickie Kemmer",
    "status": "active",
    "lat": -70.0241,
    "lng": -104.8022
  },
  {
    "id": "ST0019",
    "name": "HyperRetail San Antonio Mall",
    "region": "West",
    "city": "Houston",
    "address": "18714 Schuster Junction",
    "sqft": 130546,
    "openDate": "2018-08-20",
    "manager": "Holly Strosin",
    "status": "active",
    "lat": 68.4283,
    "lng": 53.1768
  },
  {
    "id": "ST0020",
    "name": "HyperRetail Chicago Market",
    "region": "West",
    "city": "San Diego",
    "address": "1231 Richmond Road",
    "sqft": 36344,
    "openDate": "2018-06-12",
    "manager": "Ronnie Oberbrunner-Bechtelar",
    "status": "active",
    "lat": 38.3773,
    "lng": -11.4645
  },
  {
    "id": "ST0021",
    "name": "HyperRetail Los Angeles Center",
    "region": "Central",
    "city": "New York",
    "address": "13608 Oswaldo Manor",
    "sqft": 90695,
    "openDate": "2023-02-25",
    "manager": "Dianna Ankunding",
    "status": "active",
    "lat": 73.9924,
    "lng": -58.5556
  },
  {
    "id": "ST0022",
    "name": "HyperRetail Dallas Plaza",
    "region": "West",
    "city": "Los Angeles",
    "address": "404 Lancaster Road",
    "sqft": 62931,
    "openDate": "2020-07-09",
    "manager": "Enrique Altenwerth",
    "status": "active",
    "lat": 67.9765,
    "lng": 166.8598
  },
  {
    "id": "ST0023",
    "name": "HyperRetail New York Center",
    "region": "South",
    "city": "San Antonio",
    "address": "347 Ollie Extension",
    "sqft": 87769,
    "openDate": "2024-07-06",
    "manager": "Ismael Mayer",
    "status": "active",
    "lat": 48.6285,
    "lng": -42.2711
  },
  {
    "id": "ST0024",
    "name": "HyperRetail Dallas Mall",
    "region": "North",
    "city": "Los Angeles",
    "address": "40323 School Road",
    "sqft": 87335,
    "openDate": "2023-08-06",
    "manager": "Blanche Marks",
    "status": "active",
    "lat": -36.0359,
    "lng": 58.6827
  },
  {
    "id": "ST0025",
    "name": "HyperRetail San Antonio Center",
    "region": "Central",
    "city": "Dallas",
    "address": "705 The Ridings",
    "sqft": 121816,
    "openDate": "2019-10-08",
    "manager": "Marcus DuBuque",
    "status": "active",
    "lat": -35.4752,
    "lng": 143.8039
  },
  {
    "id": "ST0026",
    "name": "HyperRetail New York Center",
    "region": "South",
    "city": "San Jose",
    "address": "64470 Osinski Cape",
    "sqft": 95687,
    "openDate": "2016-04-03",
    "manager": "Moses Schaden",
    "status": "closed",
    "lat": 27.1723,
    "lng": 16.0136
  },
  {
    "id": "ST0027",
    "name": "HyperRetail San Antonio Market",
    "region": "East",
    "city": "New York",
    "address": "422 Cross Street",
    "sqft": 100566,
    "openDate": "2024-06-02",
    "manager": "Evan Sauer",
    "status": "active",
    "lat": -40.2773,
    "lng": -127.0935
  },
  {
    "id": "ST0028",
    "name": "HyperRetail San Jose Market",
    "region": "East",
    "city": "San Antonio",
    "address": "416 Gerlach Spur",
    "sqft": 64875,
    "openDate": "2016-05-11",
    "manager": "Alvin Reilly",
    "status": "active",
    "lat": 70.2254,
    "lng": -158.1736
  },
  {
    "id": "ST0029",
    "name": "HyperRetail San Diego Center",
    "region": "North",
    "city": "San Antonio",
    "address": "90462 Bayer Cove",
    "sqft": 74033,
    "openDate": "2016-04-02",
    "manager": "Jennie Flatley",
    "status": "active",
    "lat": 80.8329,
    "lng": 64.6633
  },
  {
    "id": "ST0030",
    "name": "HyperRetail San Jose Plaza",
    "region": "West",
    "city": "Chicago",
    "address": "874 Lockman Dam",
    "sqft": 76266,
    "openDate": "2021-03-30",
    "manager": "Leona Stracke",
    "status": "active",
    "lat": -52.3466,
    "lng": 143.1629
  },
  {
    "id": "ST0031",
    "name": "HyperRetail New York Center",
    "region": "Central",
    "city": "Los Angeles",
    "address": "975 Kingfisher Close",
    "sqft": 51457,
    "openDate": "2019-03-29",
    "manager": "Jonathan Nienow IV",
    "status": "closed",
    "lat": -16.7987,
    "lng": 76.2202
  },
  {
    "id": "ST0032",
    "name": "HyperRetail San Jose Market",
    "region": "East",
    "city": "Philadelphia",
    "address": "34495 Antwan Expressway",
    "sqft": 100905,
    "openDate": "2025-09-11",
    "manager": "Dr. Charles Simonis",
    "status": "maintenance",
    "lat": -26.0926,
    "lng": 159.7326
  },
  {
    "id": "ST0033",
    "name": "HyperRetail San Antonio Market",
    "region": "South",
    "city": "Philadelphia",
    "address": "997 Crooks Summit",
    "sqft": 81997,
    "openDate": "2018-02-06",
    "manager": "Calvin Feeney",
    "status": "active",
    "lat": 29.9881,
    "lng": 101.2856
  },
  {
    "id": "ST0034",
    "name": "HyperRetail Los Angeles Market",
    "region": "East",
    "city": "San Diego",
    "address": "846 Robyn Avenue",
    "sqft": 121975,
    "openDate": "2022-04-05",
    "manager": "Miss Kate Fay",
    "status": "active",
    "lat": -50.0264,
    "lng": 110.9086
  },
  {
    "id": "ST0035",
    "name": "HyperRetail Houston Plaza",
    "region": "Central",
    "city": "Philadelphia",
    "address": "802 Franecki Brooks",
    "sqft": 72359,
    "openDate": "2021-01-07",
    "manager": "Orlando Carter II",
    "status": "active",
    "lat": -18.3894,
    "lng": 176.4311
  },
  {
    "id": "ST0036",
    "name": "HyperRetail San Jose Market",
    "region": "Central",
    "city": "Phoenix",
    "address": "57436 Borer Row",
    "sqft": 24240,
    "openDate": "2016-08-24",
    "manager": "Lorene Mayer",
    "status": "active",
    "lat": 21.9671,
    "lng": 103.5177
  },
  {
    "id": "ST0037",
    "name": "HyperRetail San Jose Mall",
    "region": "South",
    "city": "Philadelphia",
    "address": "4468 Sterling Drive",
    "sqft": 134057,
    "openDate": "2016-08-25",
    "manager": "Mr. Joe Lakin",
    "status": "active",
    "lat": -82.9927,
    "lng": -97.67
  },
  {
    "id": "ST0038",
    "name": "HyperRetail New York Market",
    "region": "North",
    "city": "Los Angeles",
    "address": "722 Main Avenue",
    "sqft": 95611,
    "openDate": "2018-08-22",
    "manager": "Jenny Keebler",
    "status": "active",
    "lat": 46.5798,
    "lng": 122.2775
  },
  {
    "id": "ST0039",
    "name": "HyperRetail Chicago Plaza",
    "region": "South",
    "city": "Phoenix",
    "address": "998 Lake Road",
    "sqft": 74528,
    "openDate": "2018-03-14",
    "manager": "Woodrow Towne",
    "status": "active",
    "lat": -53.1576,
    "lng": -106.3941
  },
  {
    "id": "ST0040",
    "name": "HyperRetail Philadelphia Mall",
    "region": "North",
    "city": "Chicago",
    "address": "68026 Frankie Center",
    "sqft": 58381,
    "openDate": "2016-06-04",
    "manager": "Hugh Jast",
    "status": "active",
    "lat": 58.8145,
    "lng": 120.8974
  },
  {
    "id": "ST0041",
    "name": "HyperRetail New York Mall",
    "region": "West",
    "city": "San Antonio",
    "address": "736 Church Hill",
    "sqft": 87036,
    "openDate": "2017-01-27",
    "manager": "Leah Grady",
    "status": "active",
    "lat": 77.5818,
    "lng": -166.4745
  },
  {
    "id": "ST0042",
    "name": "HyperRetail Houston Plaza",
    "region": "East",
    "city": "San Diego",
    "address": "1540 Hettinger Canyon",
    "sqft": 114007,
    "openDate": "2016-02-07",
    "manager": "Grace Gutmann",
    "status": "active",
    "lat": -11.2533,
    "lng": -97.05
  },
  {
    "id": "ST0043",
    "name": "HyperRetail Dallas Plaza",
    "region": "North",
    "city": "San Diego",
    "address": "93276 Robel Junction",
    "sqft": 130296,
    "openDate": "2018-03-29",
    "manager": "Belinda Tremblay",
    "status": "active",
    "lat": 38.2719,
    "lng": -88.9871
  },
  {
    "id": "ST0044",
    "name": "HyperRetail Dallas Mall",
    "region": "North",
    "city": "Los Angeles",
    "address": "4998 Wyman Extension",
    "sqft": 118053,
    "openDate": "2018-03-17",
    "manager": "Kay Cormier",
    "status": "active",
    "lat": -75.878,
    "lng": -30.7909
  },
  {
    "id": "ST0045",
    "name": "HyperRetail Philadelphia Market",
    "region": "West",
    "city": "New York",
    "address": "37552 Pound Lane",
    "sqft": 25514,
    "openDate": "2021-01-04",
    "manager": "Ana White",
    "status": "active",
    "lat": 38.5964,
    "lng": -133.2211
  },
  {
    "id": "ST0046",
    "name": "HyperRetail San Diego Center",
    "region": "North",
    "city": "San Diego",
    "address": "7513 Warren Close",
    "sqft": 78346,
    "openDate": "2017-07-22",
    "manager": "Melody Ratke",
    "status": "active",
    "lat": 54.6333,
    "lng": 151.5581
  },
  {
    "id": "ST0047",
    "name": "HyperRetail Los Angeles Center",
    "region": "North",
    "city": "San Diego",
    "address": "832 Raegan Canyon",
    "sqft": 45381,
    "openDate": "2024-05-28",
    "manager": "Florence O'Reilly Sr.",
    "status": "active",
    "lat": -68.6026,
    "lng": 72.4212
  },
  {
    "id": "ST0048",
    "name": "HyperRetail San Diego Center",
    "region": "West",
    "city": "Philadelphia",
    "address": "9543 Kub Crossing",
    "sqft": 85867,
    "openDate": "2017-12-20",
    "manager": "Whitney Hoppe",
    "status": "active",
    "lat": 50.7909,
    "lng": 122.0391
  },
  {
    "id": "ST0049",
    "name": "HyperRetail Los Angeles Plaza",
    "region": "West",
    "city": "San Diego",
    "address": "9840 Keeley Ranch",
    "sqft": 85141,
    "openDate": "2017-08-29",
    "manager": "Sidney Wisoky",
    "status": "active",
    "lat": -12.6727,
    "lng": 1.7264
  },
  {
    "id": "ST0050",
    "name": "HyperRetail Houston Center",
    "region": "East",
    "city": "Dallas",
    "address": "29875 Lafayette Street",
    "sqft": 49474,
    "openDate": "2024-07-05",
    "manager": "Ervin Crona",
    "status": "active",
    "lat": 22.5053,
    "lng": -75.5836
  },
  {
    "id": "ST0051",
    "name": "HyperRetail Houston Market",
    "region": "Central",
    "city": "San Antonio",
    "address": "8023 Weber Mountains",
    "sqft": 130589,
    "openDate": "2017-07-03",
    "manager": "Elbert Anderson",
    "status": "active",
    "lat": -60.6933,
    "lng": -161.3392
  },
  {
    "id": "ST0052",
    "name": "HyperRetail Los Angeles Center",
    "region": "North",
    "city": "Chicago",
    "address": "3134 Weber Green",
    "sqft": 75970,
    "openDate": "2018-07-03",
    "manager": "Ruben Bernhard",
    "status": "active",
    "lat": -25.9462,
    "lng": -77.127
  },
  {
    "id": "ST0053",
    "name": "HyperRetail New York Mall",
    "region": "South",
    "city": "San Antonio",
    "address": "300 Garfield Hill",
    "sqft": 142779,
    "openDate": "2016-01-05",
    "manager": "Sherman Reynolds",
    "status": "active",
    "lat": -54.1814,
    "lng": 101.1586
  },
  {
    "id": "ST0054",
    "name": "HyperRetail Phoenix Market",
    "region": "West",
    "city": "San Antonio",
    "address": "92329 Volkman Way",
    "sqft": 21492,
    "openDate": "2025-02-24",
    "manager": "Christy Daugherty-Brakus V",
    "status": "active",
    "lat": 86.2124,
    "lng": -34.7036
  },
  {
    "id": "ST0055",
    "name": "HyperRetail Philadelphia Center",
    "region": "North",
    "city": "San Diego",
    "address": "4235 Blanda Ford",
    "sqft": 98713,
    "openDate": "2023-10-10",
    "manager": "Tyrone Glover",
    "status": "active",
    "lat": 8.9291,
    "lng": 56.4322
  },
  {
    "id": "ST0056",
    "name": "HyperRetail San Antonio Market",
    "region": "North",
    "city": "San Antonio",
    "address": "1109 Bedford Road",
    "sqft": 58648,
    "openDate": "2021-07-11",
    "manager": "Yvette Koch",
    "status": "active",
    "lat": 26.7309,
    "lng": 19.2165
  },
  {
    "id": "ST0057",
    "name": "HyperRetail Chicago Center",
    "region": "North",
    "city": "San Diego",
    "address": "425 Maple Close",
    "sqft": 111862,
    "openDate": "2019-02-10",
    "manager": "Seth Leffler",
    "status": "active",
    "lat": 17.5803,
    "lng": -179.2734
  },
  {
    "id": "ST0058",
    "name": "HyperRetail Dallas Plaza",
    "region": "Central",
    "city": "Los Angeles",
    "address": "51692 Washington Street",
    "sqft": 134790,
    "openDate": "2025-10-04",
    "manager": "Pat Muller",
    "status": "active",
    "lat": 32.4202,
    "lng": -161.824
  },
  {
    "id": "ST0059",
    "name": "HyperRetail Phoenix Center",
    "region": "North",
    "city": "Houston",
    "address": "9254 West Street",
    "sqft": 48663,
    "openDate": "2021-11-02",
    "manager": "Lionel Dickens",
    "status": "active",
    "lat": -51.3598,
    "lng": 171.7226
  },
  {
    "id": "ST0060",
    "name": "HyperRetail San Antonio Plaza",
    "region": "East",
    "city": "New York",
    "address": "430 South Avenue",
    "sqft": 30959,
    "openDate": "2016-09-08",
    "manager": "Mr. Elmer Gerlach",
    "status": "active",
    "lat": 40.2206,
    "lng": -22.1814
  },
  {
    "id": "ST0061",
    "name": "HyperRetail New York Market",
    "region": "East",
    "city": "Chicago",
    "address": "5662 S Market Street",
    "sqft": 46523,
    "openDate": "2024-11-29",
    "manager": "Antonio Thiel",
    "status": "active",
    "lat": 74.0739,
    "lng": -175.0516
  },
  {
    "id": "ST0062",
    "name": "HyperRetail New York Plaza",
    "region": "South",
    "city": "Chicago",
    "address": "30290 Koelpin Junctions",
    "sqft": 115256,
    "openDate": "2023-09-04",
    "manager": "Freddie Mertz",
    "status": "active",
    "lat": 81.2684,
    "lng": -60.1075
  },
  {
    "id": "ST0063",
    "name": "HyperRetail Dallas Market",
    "region": "Central",
    "city": "Houston",
    "address": "592 Schaefer Estate",
    "sqft": 71668,
    "openDate": "2019-08-30",
    "manager": "Dr. Gerardo Ritchie II",
    "status": "active",
    "lat": 48.7337,
    "lng": -46.3994
  },
  {
    "id": "ST0064",
    "name": "HyperRetail Phoenix Market",
    "region": "South",
    "city": "Philadelphia",
    "address": "532 Hillside Close",
    "sqft": 138984,
    "openDate": "2016-11-17",
    "manager": "Mr. Carlton Schaefer",
    "status": "active",
    "lat": 23.4445,
    "lng": 134.5403
  },
  {
    "id": "ST0065",
    "name": "HyperRetail Chicago Center",
    "region": "West",
    "city": "Dallas",
    "address": "5456 Tremayne Shore",
    "sqft": 28320,
    "openDate": "2021-08-20",
    "manager": "Nelson Schaden",
    "status": "active",
    "lat": -86.0556,
    "lng": -107.6045
  },
  {
    "id": "ST0066",
    "name": "HyperRetail Houston Center",
    "region": "East",
    "city": "Phoenix",
    "address": "54092 Earl Run",
    "sqft": 112685,
    "openDate": "2021-09-24",
    "manager": "Inez Gibson Sr.",
    "status": "active",
    "lat": -61.1168,
    "lng": 5.9128
  },
  {
    "id": "ST0067",
    "name": "HyperRetail New York Market",
    "region": "North",
    "city": "San Jose",
    "address": "7878 S Broadway",
    "sqft": 78006,
    "openDate": "2024-09-21",
    "manager": "Francisco Hagenes I",
    "status": "active",
    "lat": 2.701,
    "lng": 19.2169
  },
  {
    "id": "ST0068",
    "name": "HyperRetail Philadelphia Mall",
    "region": "South",
    "city": "San Diego",
    "address": "1887 Garden Close",
    "sqft": 48088,
    "openDate": "2016-09-10",
    "manager": "Randal Hansen",
    "status": "active",
    "lat": -22.7664,
    "lng": 2.0283
  },
  {
    "id": "ST0069",
    "name": "HyperRetail Chicago Market",
    "region": "South",
    "city": "Dallas",
    "address": "19305 N 7th Street",
    "sqft": 65356,
    "openDate": "2023-11-21",
    "manager": "Orville Pagac PhD",
    "status": "active",
    "lat": 64.5776,
    "lng": -13.7364
  },
  {
    "id": "ST0070",
    "name": "HyperRetail San Diego Mall",
    "region": "East",
    "city": "New York",
    "address": "3146 Daugherty Rest",
    "sqft": 110214,
    "openDate": "2021-12-24",
    "manager": "Courtney Keeling",
    "status": "active",
    "lat": -89.6415,
    "lng": 130.6701
  },
  {
    "id": "ST0071",
    "name": "HyperRetail San Diego Center",
    "region": "West",
    "city": "San Diego",
    "address": "3150 Aufderhar Isle",
    "sqft": 41547,
    "openDate": "2018-07-04",
    "manager": "Tomas Cartwright",
    "status": "active",
    "lat": -71.0379,
    "lng": 29.5718
  },
  {
    "id": "ST0072",
    "name": "HyperRetail Chicago Plaza",
    "region": "East",
    "city": "Chicago",
    "address": "3210 Giovanny Fords",
    "sqft": 50446,
    "openDate": "2022-06-21",
    "manager": "Miss Gayle Marquardt-Morissette III",
    "status": "active",
    "lat": 45.6957,
    "lng": -25.58
  },
  {
    "id": "ST0073",
    "name": "HyperRetail Dallas Center",
    "region": "West",
    "city": "San Antonio",
    "address": "7712 Hansen Isle",
    "sqft": 91069,
    "openDate": "2017-02-15",
    "manager": "Otis Lemke Sr.",
    "status": "active",
    "lat": 19.0148,
    "lng": -1.5466
  },
  {
    "id": "ST0074",
    "name": "HyperRetail Los Angeles Market",
    "region": "South",
    "city": "Phoenix",
    "address": "96521 Runolfsdottir Turnpike",
    "sqft": 108257,
    "openDate": "2023-10-14",
    "manager": "Hugh Johnston-Sanford",
    "status": "active",
    "lat": 52.6965,
    "lng": 128.6312
  },
  {
    "id": "ST0075",
    "name": "HyperRetail New York Center",
    "region": "East",
    "city": "Phoenix",
    "address": "8626 E Main",
    "sqft": 134604,
    "openDate": "2025-09-22",
    "manager": "Archie Leuschke",
    "status": "active",
    "lat": -6.2901,
    "lng": 115.6998
  },
  {
    "id": "ST0076",
    "name": "HyperRetail Dallas Market",
    "region": "South",
    "city": "Phoenix",
    "address": "42754 Deckow Squares",
    "sqft": 131147,
    "openDate": "2021-10-13",
    "manager": "Darren Ankunding",
    "status": "active",
    "lat": -20.1913,
    "lng": 53.1987
  },
  {
    "id": "ST0077",
    "name": "HyperRetail Dallas Plaza",
    "region": "Central",
    "city": "Chicago",
    "address": "20084 Davis Mill",
    "sqft": 116601,
    "openDate": "2016-02-25",
    "manager": "Stephen O'Connell Jr.",
    "status": "active",
    "lat": -22.4156,
    "lng": 4.8126
  },
  {
    "id": "ST0078",
    "name": "HyperRetail Dallas Market",
    "region": "East",
    "city": "Chicago",
    "address": "950 Isabelle Extension",
    "sqft": 29100,
    "openDate": "2022-04-28",
    "manager": "Clyde Bernhard",
    "status": "active",
    "lat": -22.5935,
    "lng": -12.8741
  },
  {
    "id": "ST0079",
    "name": "HyperRetail Houston Center",
    "region": "North",
    "city": "San Antonio",
    "address": "7903 Ricky Plaza",
    "sqft": 129503,
    "openDate": "2020-12-27",
    "manager": "Linda Schneider",
    "status": "active",
    "lat": -71.3379,
    "lng": 17.4309
  },
  {
    "id": "ST0080",
    "name": "HyperRetail New York Plaza",
    "region": "East",
    "city": "San Diego",
    "address": "6575 Henry Street",
    "sqft": 124391,
    "openDate": "2019-01-21",
    "manager": "Earnest Ankunding",
    "status": "active",
    "lat": 21.6853,
    "lng": 76.7649
  },
  {
    "id": "ST0081",
    "name": "HyperRetail San Diego Mall",
    "region": "North",
    "city": "San Antonio",
    "address": "48371 E North Street",
    "sqft": 118633,
    "openDate": "2019-10-11",
    "manager": "Andre Ryan PhD",
    "status": "active",
    "lat": 7.4964,
    "lng": 47.6609
  },
  {
    "id": "ST0082",
    "name": "HyperRetail San Diego Plaza",
    "region": "South",
    "city": "Phoenix",
    "address": "7723 Lafayette Gardens",
    "sqft": 44098,
    "openDate": "2023-05-31",
    "manager": "Dr. Nathan Kassulke",
    "status": "active",
    "lat": 1.2707,
    "lng": 88.4712
  },
  {
    "id": "ST0083",
    "name": "HyperRetail Los Angeles Center",
    "region": "North",
    "city": "Philadelphia",
    "address": "234 Maple Close",
    "sqft": 105737,
    "openDate": "2016-03-31",
    "manager": "Franklin Lowe",
    "status": "active",
    "lat": -42.4689,
    "lng": 49.2342
  },
  {
    "id": "ST0084",
    "name": "HyperRetail San Jose Center",
    "region": "West",
    "city": "Chicago",
    "address": "52814 Edward Street",
    "sqft": 48433,
    "openDate": "2019-04-14",
    "manager": "Woodrow Berge",
    "status": "active",
    "lat": 56.6892,
    "lng": 115.7933
  },
  {
    "id": "ST0085",
    "name": "HyperRetail San Diego Mall",
    "region": "West",
    "city": "San Jose",
    "address": "80767 Corwin Keys",
    "sqft": 48240,
    "openDate": "2025-07-07",
    "manager": "Charlotte Bartoletti",
    "status": "active",
    "lat": 69.9236,
    "lng": -92.3772
  },
  {
    "id": "ST0086",
    "name": "HyperRetail Dallas Center",
    "region": "West",
    "city": "New York",
    "address": "773 Treutel Estate",
    "sqft": 135456,
    "openDate": "2020-09-08",
    "manager": "Miss Bridget Kertzmann PhD",
    "status": "active",
    "lat": 62.0769,
    "lng": 89.2817
  },
  {
    "id": "ST0087",
    "name": "HyperRetail Chicago Market",
    "region": "East",
    "city": "San Diego",
    "address": "90899 Toy Roads",
    "sqft": 124176,
    "openDate": "2017-10-06",
    "manager": "Orville Zieme",
    "status": "active",
    "lat": 12.8092,
    "lng": -165.4737
  },
  {
    "id": "ST0088",
    "name": "HyperRetail Houston Mall",
    "region": "South",
    "city": "Los Angeles",
    "address": "183 Sycamore Drive",
    "sqft": 72781,
    "openDate": "2020-03-02",
    "manager": "Darlene O'Keefe",
    "status": "active",
    "lat": -87.1663,
    "lng": -174.8227
  },
  {
    "id": "ST0089",
    "name": "HyperRetail New York Market",
    "region": "Central",
    "city": "San Antonio",
    "address": "730 Rodger Mall",
    "sqft": 100539,
    "openDate": "2025-10-09",
    "manager": "Mr. Amos Johns",
    "status": "active",
    "lat": -19.6932,
    "lng": 29.1421
  },
  {
    "id": "ST0090",
    "name": "HyperRetail New York Market",
    "region": "West",
    "city": "San Diego",
    "address": "467 Gillian Neck",
    "sqft": 49754,
    "openDate": "2020-02-19",
    "manager": "Al Hoeger III",
    "status": "active",
    "lat": 21.3349,
    "lng": 9.9639
  },
  {
    "id": "ST0091",
    "name": "HyperRetail San Antonio Plaza",
    "region": "East",
    "city": "San Jose",
    "address": "9468 Marsh Lane",
    "sqft": 112963,
    "openDate": "2016-06-07",
    "manager": "Clayton White",
    "status": "active",
    "lat": 31.4616,
    "lng": -49.5247
  },
  {
    "id": "ST0092",
    "name": "HyperRetail San Antonio Market",
    "region": "South",
    "city": "Los Angeles",
    "address": "916 Becker Prairie",
    "sqft": 103754,
    "openDate": "2018-11-10",
    "manager": "Hubert Gorczany",
    "status": "active",
    "lat": 44.603,
    "lng": 48.9385
  },
  {
    "id": "ST0093",
    "name": "HyperRetail Dallas Center",
    "region": "East",
    "city": "Los Angeles",
    "address": "70456 Smitham Villages",
    "sqft": 42064,
    "openDate": "2025-03-21",
    "manager": "Candace Bailey",
    "status": "active",
    "lat": 35.9351,
    "lng": -16.7116
  },
  {
    "id": "ST0094",
    "name": "HyperRetail Dallas Mall",
    "region": "Central",
    "city": "San Antonio",
    "address": "956 Wilkinson Island",
    "sqft": 134610,
    "openDate": "2024-04-16",
    "manager": "Perry Gottlieb",
    "status": "maintenance",
    "lat": -75.8596,
    "lng": 29.9487
  },
  {
    "id": "ST0095",
    "name": "HyperRetail San Diego Center",
    "region": "North",
    "city": "Houston",
    "address": "1700 Feeney Circles",
    "sqft": 139038,
    "openDate": "2019-10-06",
    "manager": "Tomas Tillman",
    "status": "active",
    "lat": 17.4198,
    "lng": -103.9566
  },
  {
    "id": "ST0096",
    "name": "HyperRetail Philadelphia Market",
    "region": "Central",
    "city": "Dallas",
    "address": "237 Fairfield Road",
    "sqft": 134996,
    "openDate": "2017-10-21",
    "manager": "Winifred Bartell",
    "status": "active",
    "lat": 34.4181,
    "lng": 44.147
  },
  {
    "id": "ST0097",
    "name": "HyperRetail San Antonio Market",
    "region": "West",
    "city": "Phoenix",
    "address": "870 Estrella Grove",
    "sqft": 28712,
    "openDate": "2021-06-23",
    "manager": "Dr. Tyler Ortiz",
    "status": "maintenance",
    "lat": -34.9108,
    "lng": -149.3628
  },
  {
    "id": "ST0098",
    "name": "HyperRetail Philadelphia Mall",
    "region": "West",
    "city": "New York",
    "address": "2124 Bednar Fords",
    "sqft": 142510,
    "openDate": "2024-10-25",
    "manager": "Sara Corkery",
    "status": "closed",
    "lat": 87.3547,
    "lng": 93.3453
  },
  {
    "id": "ST0099",
    "name": "HyperRetail Los Angeles Market",
    "region": "North",
    "city": "Phoenix",
    "address": "31723 Gusikowski Extension",
    "sqft": 50226,
    "openDate": "2025-08-15",
    "manager": "Angelina Hickle",
    "status": "active",
    "lat": 31.319,
    "lng": -71.1076
  },
  {
    "id": "ST0100",
    "name": "HyperRetail New York Market",
    "region": "South",
    "city": "Los Angeles",
    "address": "917 Blick Throughway",
    "sqft": 148275,
    "openDate": "2024-04-11",
    "manager": "Ms. Carolyn Kuhic",
    "status": "active",
    "lat": 11.4135,
    "lng": 42.1988
  },
  {
    "id": "ST0101",
    "name": "HyperRetail Dallas Plaza",
    "region": "North",
    "city": "Phoenix",
    "address": "8531 Lindsey Alley",
    "sqft": 55573,
    "openDate": "2024-02-01",
    "manager": "Eula Kiehn",
    "status": "closed",
    "lat": -34.8366,
    "lng": -37.5451
  },
  {
    "id": "ST0102",
    "name": "HyperRetail Dallas Center",
    "region": "North",
    "city": "Chicago",
    "address": "4417 Marvin Mills",
    "sqft": 106738,
    "openDate": "2015-12-01",
    "manager": "Rex Dooley",
    "status": "active",
    "lat": 6.8441,
    "lng": -134.5117
  },
  {
    "id": "ST0103",
    "name": "HyperRetail Dallas Center",
    "region": "Central",
    "city": "San Diego",
    "address": "930 Juana Lock",
    "sqft": 81213,
    "openDate": "2018-06-01",
    "manager": "Julio Kub",
    "status": "active",
    "lat": 28.4549,
    "lng": -49.8947
  },
  {
    "id": "ST0104",
    "name": "HyperRetail Los Angeles Market",
    "region": "West",
    "city": "Phoenix",
    "address": "36447 Cassin Union",
    "sqft": 45534,
    "openDate": "2016-12-07",
    "manager": "Bryant Langosh",
    "status": "active",
    "lat": 14.2766,
    "lng": 4.6429
  },
  {
    "id": "ST0105",
    "name": "HyperRetail Phoenix Market",
    "region": "West",
    "city": "Phoenix",
    "address": "95937 Goyette Coves",
    "sqft": 37115,
    "openDate": "2020-02-14",
    "manager": "Mr. Clarence Gottlieb",
    "status": "active",
    "lat": -57.0892,
    "lng": -33.6396
  },
  {
    "id": "ST0106",
    "name": "HyperRetail Dallas Market",
    "region": "South",
    "city": "San Antonio",
    "address": "695 Hilpert Coves",
    "sqft": 122134,
    "openDate": "2022-01-31",
    "manager": "Sadie Hilll Jr.",
    "status": "active",
    "lat": 10.2213,
    "lng": 82.607
  },
  {
    "id": "ST0107",
    "name": "HyperRetail Dallas Center",
    "region": "West",
    "city": "Houston",
    "address": "96022 Josie Track",
    "sqft": 87854,
    "openDate": "2023-05-01",
    "manager": "Ray Abbott",
    "status": "active",
    "lat": 18.0507,
    "lng": 105.3342
  },
  {
    "id": "ST0108",
    "name": "HyperRetail New York Center",
    "region": "South",
    "city": "San Diego",
    "address": "22453 Augustus Forks",
    "sqft": 83197,
    "openDate": "2023-06-16",
    "manager": "Roman Welch",
    "status": "active",
    "lat": -52.6427,
    "lng": 152.8281
  },
  {
    "id": "ST0109",
    "name": "HyperRetail Chicago Market",
    "region": "Central",
    "city": "Philadelphia",
    "address": "1477 Church Path",
    "sqft": 99983,
    "openDate": "2020-12-15",
    "manager": "Duane Metz",
    "status": "closed",
    "lat": 78.331,
    "lng": 97.0016
  },
  {
    "id": "ST0110",
    "name": "HyperRetail Houston Mall",
    "region": "West",
    "city": "Dallas",
    "address": "2607 Alverta Greens",
    "sqft": 104058,
    "openDate": "2020-09-21",
    "manager": "Cora Vandervort",
    "status": "active",
    "lat": 49.2395,
    "lng": 0.4592
  },
  {
    "id": "ST0111",
    "name": "HyperRetail Los Angeles Plaza",
    "region": "West",
    "city": "New York",
    "address": "58498 Claremont Road",
    "sqft": 123481,
    "openDate": "2025-07-30",
    "manager": "Harvey Ferry",
    "status": "active",
    "lat": -6.1771,
    "lng": 80.8554
  },
  {
    "id": "ST0112",
    "name": "HyperRetail San Diego Plaza",
    "region": "Central",
    "city": "San Antonio",
    "address": "39163 Schmitt Drives",
    "sqft": 70972,
    "openDate": "2025-04-09",
    "manager": "Mr. Marshall O'Hara",
    "status": "active",
    "lat": 10.1621,
    "lng": 63.8615
  },
  {
    "id": "ST0113",
    "name": "HyperRetail Dallas Center",
    "region": "Central",
    "city": "San Jose",
    "address": "430 Aileen Route",
    "sqft": 127492,
    "openDate": "2021-07-08",
    "manager": "Harold Grady",
    "status": "active",
    "lat": -27.8849,
    "lng": -74.6941
  },
  {
    "id": "ST0114",
    "name": "HyperRetail New York Mall",
    "region": "Central",
    "city": "Chicago",
    "address": "196 Lavern Parkways",
    "sqft": 104940,
    "openDate": "2019-01-17",
    "manager": "Jill Stanton",
    "status": "maintenance",
    "lat": 17.933,
    "lng": 138.5479
  },
  {
    "id": "ST0115",
    "name": "HyperRetail Philadelphia Center",
    "region": "South",
    "city": "Chicago",
    "address": "339 Altenwerth Port",
    "sqft": 113087,
    "openDate": "2020-05-26",
    "manager": "Dr. Greg Kertzmann II",
    "status": "active",
    "lat": -28.8051,
    "lng": -128.7881
  },
  {
    "id": "ST0116",
    "name": "HyperRetail New York Mall",
    "region": "East",
    "city": "Dallas",
    "address": "13985 Woodland Close",
    "sqft": 44145,
    "openDate": "2016-06-10",
    "manager": "Colleen Donnelly",
    "status": "active",
    "lat": -73.3751,
    "lng": -93.6039
  },
  {
    "id": "ST0117",
    "name": "HyperRetail Los Angeles Center",
    "region": "East",
    "city": "Chicago",
    "address": "49449 Dickens Fields",
    "sqft": 20653,
    "openDate": "2021-02-13",
    "manager": "Amelia Rolfson",
    "status": "active",
    "lat": -40.8527,
    "lng": 28.0408
  },
  {
    "id": "ST0118",
    "name": "HyperRetail Los Angeles Market",
    "region": "South",
    "city": "Dallas",
    "address": "79070 Effertz Throughway",
    "sqft": 106258,
    "openDate": "2023-05-02",
    "manager": "Verna Steuber II",
    "status": "active",
    "lat": 46.3436,
    "lng": 147.3031
  },
  {
    "id": "ST0119",
    "name": "HyperRetail Chicago Mall",
    "region": "South",
    "city": "San Antonio",
    "address": "34171 Hawthorn Avenue",
    "sqft": 98494,
    "openDate": "2021-07-12",
    "manager": "Levi Carter",
    "status": "active",
    "lat": -2.5529,
    "lng": 11.3238
  },
  {
    "id": "ST0120",
    "name": "HyperRetail Los Angeles Mall",
    "region": "West",
    "city": "Phoenix",
    "address": "315 Main Road",
    "sqft": 102191,
    "openDate": "2024-03-08",
    "manager": "Keith Lockman",
    "status": "maintenance",
    "lat": -81.8552,
    "lng": -56.1752
  },
  {
    "id": "ST0121",
    "name": "HyperRetail Chicago Center",
    "region": "North",
    "city": "San Antonio",
    "address": "9188 Ledner Plains",
    "sqft": 110960,
    "openDate": "2016-11-06",
    "manager": "Jeanne Hansen Jr.",
    "status": "active",
    "lat": 58.7792,
    "lng": -88.5824
  },
  {
    "id": "ST0122",
    "name": "HyperRetail Dallas Market",
    "region": "North",
    "city": "New York",
    "address": "1431 Will Oval",
    "sqft": 47910,
    "openDate": "2023-07-26",
    "manager": "Alyssa Sawayn",
    "status": "active",
    "lat": -84.1602,
    "lng": 42.0999
  },
  {
    "id": "ST0123",
    "name": "HyperRetail San Antonio Market",
    "region": "East",
    "city": "Chicago",
    "address": "81757 Kelli View",
    "sqft": 52011,
    "openDate": "2017-08-23",
    "manager": "Ebony Gerlach",
    "status": "maintenance",
    "lat": 50.7692,
    "lng": -24.7558
  },
  {
    "id": "ST0124",
    "name": "HyperRetail Chicago Mall",
    "region": "North",
    "city": "New York",
    "address": "10654 Daniela Ways",
    "sqft": 99816,
    "openDate": "2020-02-01",
    "manager": "Judy Pfeffer",
    "status": "active",
    "lat": 58.2394,
    "lng": 88.2646
  },
  {
    "id": "ST0125",
    "name": "HyperRetail Dallas Plaza",
    "region": "East",
    "city": "Dallas",
    "address": "8318 Erling Motorway",
    "sqft": 47177,
    "openDate": "2024-04-07",
    "manager": "Dianna Herzog",
    "status": "maintenance",
    "lat": 61.3636,
    "lng": 23.6477
  },
  {
    "id": "ST0126",
    "name": "HyperRetail Chicago Plaza",
    "region": "South",
    "city": "Los Angeles",
    "address": "687 Sauer Land",
    "sqft": 55848,
    "openDate": "2022-10-18",
    "manager": "Kellie Carter",
    "status": "maintenance",
    "lat": -76.2178,
    "lng": 66.1919
  },
  {
    "id": "ST0127",
    "name": "HyperRetail Phoenix Center",
    "region": "West",
    "city": "New York",
    "address": "534 Caroline Plain",
    "sqft": 105333,
    "openDate": "2019-08-21",
    "manager": "Floyd Walter",
    "status": "active",
    "lat": -77.679,
    "lng": -99.3663
  },
  {
    "id": "ST0128",
    "name": "HyperRetail Phoenix Plaza",
    "region": "North",
    "city": "Philadelphia",
    "address": "7906 Bell Lane",
    "sqft": 104271,
    "openDate": "2022-04-13",
    "manager": "Brandy Jacobson PhD",
    "status": "active",
    "lat": 56.6408,
    "lng": -64.9253
  },
  {
    "id": "ST0129",
    "name": "HyperRetail San Antonio Mall",
    "region": "South",
    "city": "Dallas",
    "address": "91437 Lemke Points",
    "sqft": 89912,
    "openDate": "2019-04-01",
    "manager": "Kathleen Huels",
    "status": "active",
    "lat": 10.139,
    "lng": -123.5475
  },
  {
    "id": "ST0130",
    "name": "HyperRetail New York Market",
    "region": "Central",
    "city": "New York",
    "address": "42158 N Washington Street",
    "sqft": 32444,
    "openDate": "2023-07-07",
    "manager": "Mattie Renner-Gislason II",
    "status": "active",
    "lat": 60.5698,
    "lng": 139.0255
  },
  {
    "id": "ST0131",
    "name": "HyperRetail New York Market",
    "region": "East",
    "city": "San Jose",
    "address": "6362 Bosco Route",
    "sqft": 60927,
    "openDate": "2020-07-07",
    "manager": "Sonya Keebler",
    "status": "active",
    "lat": -10.0973,
    "lng": 116.8098
  },
  {
    "id": "ST0132",
    "name": "HyperRetail Dallas Plaza",
    "region": "West",
    "city": "Dallas",
    "address": "59824 Genevieve Run",
    "sqft": 138958,
    "openDate": "2020-10-28",
    "manager": "Agnes Friesen",
    "status": "active",
    "lat": 2.5372,
    "lng": -81.2216
  },
  {
    "id": "ST0133",
    "name": "HyperRetail Houston Market",
    "region": "East",
    "city": "Chicago",
    "address": "80528 Meta Wall",
    "sqft": 110571,
    "openDate": "2016-03-05",
    "manager": "Elsie Rempel",
    "status": "active",
    "lat": 64.2945,
    "lng": 61.5936
  },
  {
    "id": "ST0134",
    "name": "HyperRetail Dallas Market",
    "region": "East",
    "city": "San Jose",
    "address": "43762 Zboncak Shore",
    "sqft": 23350,
    "openDate": "2015-11-09",
    "manager": "Chris Koelpin",
    "status": "active",
    "lat": -68.3303,
    "lng": -70.3827
  },
  {
    "id": "ST0135",
    "name": "HyperRetail San Jose Plaza",
    "region": "North",
    "city": "New York",
    "address": "8243 Lockman Valley",
    "sqft": 74235,
    "openDate": "2018-01-25",
    "manager": "Janice Mann",
    "status": "active",
    "lat": 46.311,
    "lng": 106.996
  },
  {
    "id": "ST0136",
    "name": "HyperRetail Dallas Center",
    "region": "North",
    "city": "San Antonio",
    "address": "4180 Maiya Crossing",
    "sqft": 98319,
    "openDate": "2022-06-22",
    "manager": "Debra Feil",
    "status": "active",
    "lat": 60.2905,
    "lng": 161.3706
  },
  {
    "id": "ST0137",
    "name": "HyperRetail San Jose Mall",
    "region": "North",
    "city": "Chicago",
    "address": "38290 Walter Camp",
    "sqft": 47780,
    "openDate": "2025-06-07",
    "manager": "Mrs. Becky Huel",
    "status": "active",
    "lat": 14.9854,
    "lng": 160.8322
  },
  {
    "id": "ST0138",
    "name": "HyperRetail New York Market",
    "region": "West",
    "city": "Houston",
    "address": "30653 Mann Walks",
    "sqft": 20813,
    "openDate": "2020-05-21",
    "manager": "Hazel Quitzon",
    "status": "active",
    "lat": 45.2616,
    "lng": 145.5276
  },
  {
    "id": "ST0139",
    "name": "HyperRetail Los Angeles Mall",
    "region": "East",
    "city": "Philadelphia",
    "address": "10448 Quinton Extensions",
    "sqft": 49161,
    "openDate": "2022-08-27",
    "manager": "Charlotte Bogisich Jr.",
    "status": "active",
    "lat": -55.2151,
    "lng": -17.9789
  },
  {
    "id": "ST0140",
    "name": "HyperRetail New York Mall",
    "region": "West",
    "city": "Dallas",
    "address": "12237 Bechtelar Trace",
    "sqft": 84030,
    "openDate": "2018-03-29",
    "manager": "Jeannette Kuhic",
    "status": "active",
    "lat": 5.3893,
    "lng": 18.9945
  },
  {
    "id": "ST0141",
    "name": "HyperRetail Los Angeles Plaza",
    "region": "East",
    "city": "Chicago",
    "address": "379 Kassandra Crescent",
    "sqft": 115408,
    "openDate": "2023-02-23",
    "manager": "Ana Jast",
    "status": "active",
    "lat": -59.1669,
    "lng": -159.5951
  },
  {
    "id": "ST0142",
    "name": "HyperRetail Dallas Plaza",
    "region": "East",
    "city": "Houston",
    "address": "7812 Wolf Flats",
    "sqft": 64826,
    "openDate": "2016-12-20",
    "manager": "Alyssa Gulgowski",
    "status": "active",
    "lat": -69.9954,
    "lng": -31.9306
  },
  {
    "id": "ST0143",
    "name": "HyperRetail San Antonio Plaza",
    "region": "Central",
    "city": "San Antonio",
    "address": "816 Senger Common",
    "sqft": 71609,
    "openDate": "2025-05-16",
    "manager": "Lynda Leuschke",
    "status": "active",
    "lat": 30.8288,
    "lng": -167.4219
  },
  {
    "id": "ST0144",
    "name": "HyperRetail Chicago Market",
    "region": "North",
    "city": "New York",
    "address": "515 Cedar Avenue",
    "sqft": 147047,
    "openDate": "2024-02-20",
    "manager": "Dustin Ruecker",
    "status": "active",
    "lat": 65.8983,
    "lng": 49.6447
  },
  {
    "id": "ST0145",
    "name": "HyperRetail Chicago Market",
    "region": "East",
    "city": "San Diego",
    "address": "4444 Harris Plaza",
    "sqft": 93350,
    "openDate": "2020-10-27",
    "manager": "Doug Bailey III",
    "status": "active",
    "lat": -39.7912,
    "lng": 116.3784
  },
  {
    "id": "ST0146",
    "name": "HyperRetail Los Angeles Center",
    "region": "North",
    "city": "San Diego",
    "address": "1582 Janis Tunnel",
    "sqft": 83990,
    "openDate": "2015-11-30",
    "manager": "Dr. Eleanor Ebert",
    "status": "active",
    "lat": -44.4553,
    "lng": 36.8891
  },
  {
    "id": "ST0147",
    "name": "HyperRetail Dallas Center",
    "region": "North",
    "city": "New York",
    "address": "39069 Chapel Street",
    "sqft": 62163,
    "openDate": "2024-04-23",
    "manager": "Stewart Welch",
    "status": "active",
    "lat": 32.8559,
    "lng": -178.0543
  },
  {
    "id": "ST0148",
    "name": "HyperRetail Philadelphia Plaza",
    "region": "East",
    "city": "Houston",
    "address": "27024 Waterloo Road",
    "sqft": 50333,
    "openDate": "2022-08-04",
    "manager": "Alfonso O'Hara",
    "status": "active",
    "lat": -79.2103,
    "lng": 54.1531
  },
  {
    "id": "ST0149",
    "name": "HyperRetail Los Angeles Plaza",
    "region": "West",
    "city": "Los Angeles",
    "address": "701 Yew Tree Close",
    "sqft": 64371,
    "openDate": "2023-12-29",
    "manager": "Erika Jenkins",
    "status": "active",
    "lat": -6.2394,
    "lng": -169.9762
  },
  {
    "id": "ST0150",
    "name": "HyperRetail New York Center",
    "region": "North",
    "city": "Dallas",
    "address": "80467 Pacocha Mills",
    "sqft": 114153,
    "openDate": "2024-01-30",
    "manager": "Dr. Eleanor Ondricka",
    "status": "active",
    "lat": -80.925,
    "lng": 110.1524
  },
  {
    "id": "ST0151",
    "name": "HyperRetail Dallas Center",
    "region": "East",
    "city": "Los Angeles",
    "address": "1530 Borer Stream",
    "sqft": 98119,
    "openDate": "2024-07-20",
    "manager": "Traci Stracke",
    "status": "active",
    "lat": -64.2094,
    "lng": 126.574
  },
  {
    "id": "ST0152",
    "name": "HyperRetail San Diego Market",
    "region": "South",
    "city": "San Diego",
    "address": "8699 Schiller Garden",
    "sqft": 107927,
    "openDate": "2017-06-16",
    "manager": "Nick McClure",
    "status": "active",
    "lat": -89.7999,
    "lng": 92.2804
  },
  {
    "id": "ST0153",
    "name": "HyperRetail Chicago Plaza",
    "region": "South",
    "city": "San Jose",
    "address": "3615 Armstrong Bypass",
    "sqft": 114741,
    "openDate": "2018-12-26",
    "manager": "Kerry Smitham",
    "status": "active",
    "lat": -28.3084,
    "lng": -134.5424
  },
  {
    "id": "ST0154",
    "name": "HyperRetail Los Angeles Market",
    "region": "North",
    "city": "San Jose",
    "address": "594 Hamill Common",
    "sqft": 136255,
    "openDate": "2021-10-22",
    "manager": "Pete Satterfield",
    "status": "active",
    "lat": 70.4161,
    "lng": -179.989
  },
  {
    "id": "ST0155",
    "name": "HyperRetail New York Center",
    "region": "South",
    "city": "Houston",
    "address": "3100 Schultz Streets",
    "sqft": 136273,
    "openDate": "2016-04-03",
    "manager": "Virgil Larkin",
    "status": "active",
    "lat": 56.2065,
    "lng": 17.5942
  },
  {
    "id": "ST0156",
    "name": "HyperRetail Houston Mall",
    "region": "West",
    "city": "San Antonio",
    "address": "422 Botsford Lights",
    "sqft": 60939,
    "openDate": "2024-06-12",
    "manager": "Dr. Stephanie Simonis III",
    "status": "active",
    "lat": 5.7369,
    "lng": -148.4461
  },
  {
    "id": "ST0157",
    "name": "HyperRetail Dallas Plaza",
    "region": "Central",
    "city": "Dallas",
    "address": "5833 Haag Gateway",
    "sqft": 72351,
    "openDate": "2020-12-09",
    "manager": "Orville Medhurst",
    "status": "active",
    "lat": -66.0223,
    "lng": -48.7186
  },
  {
    "id": "ST0158",
    "name": "HyperRetail San Antonio Center",
    "region": "North",
    "city": "San Antonio",
    "address": "2657 Nick Springs",
    "sqft": 133472,
    "openDate": "2021-07-27",
    "manager": "Jaime Bosco",
    "status": "active",
    "lat": -56.4048,
    "lng": 62.5326
  },
  {
    "id": "ST0159",
    "name": "HyperRetail New York Market",
    "region": "South",
    "city": "Houston",
    "address": "5678 Cleve Fall",
    "sqft": 36321,
    "openDate": "2020-04-26",
    "manager": "Jordan Grady",
    "status": "active",
    "lat": 15.4015,
    "lng": -79.9758
  },
  {
    "id": "ST0160",
    "name": "HyperRetail Philadelphia Market",
    "region": "North",
    "city": "San Antonio",
    "address": "81954 Bergstrom Falls",
    "sqft": 26252,
    "openDate": "2019-06-15",
    "manager": "Marcella Bauch",
    "status": "active",
    "lat": -41.0785,
    "lng": 68.1518
  },
  {
    "id": "ST0161",
    "name": "HyperRetail Houston Mall",
    "region": "East",
    "city": "Houston",
    "address": "6189 N Park Street",
    "sqft": 95807,
    "openDate": "2024-06-20",
    "manager": "Darrel Blanda",
    "status": "maintenance",
    "lat": -6.0873,
    "lng": 178.7637
  },
  {
    "id": "ST0162",
    "name": "HyperRetail Los Angeles Center",
    "region": "West",
    "city": "San Diego",
    "address": "4399 Aufderhar Ridges",
    "sqft": 61050,
    "openDate": "2016-08-04",
    "manager": "Camille Skiles",
    "status": "active",
    "lat": -30.3566,
    "lng": 167.9572
  },
  {
    "id": "ST0163",
    "name": "HyperRetail San Antonio Center",
    "region": "South",
    "city": "San Jose",
    "address": "743 Hilpert View",
    "sqft": 91561,
    "openDate": "2023-04-27",
    "manager": "Willie McDermott",
    "status": "maintenance",
    "lat": -27.7875,
    "lng": -43.9779
  },
  {
    "id": "ST0164",
    "name": "HyperRetail Dallas Plaza",
    "region": "East",
    "city": "Houston",
    "address": "51106 Zieme Common",
    "sqft": 78726,
    "openDate": "2024-09-07",
    "manager": "Darla Swaniawski",
    "status": "active",
    "lat": 68.9893,
    "lng": 174.89
  },
  {
    "id": "ST0165",
    "name": "HyperRetail Phoenix Plaza",
    "region": "South",
    "city": "San Antonio",
    "address": "6446 Berge Lakes",
    "sqft": 125784,
    "openDate": "2021-09-05",
    "manager": "Randolph Collins I",
    "status": "active",
    "lat": -57.5068,
    "lng": -8.1302
  },
  {
    "id": "ST0166",
    "name": "HyperRetail Chicago Center",
    "region": "East",
    "city": "Philadelphia",
    "address": "48321 Giuseppe Points",
    "sqft": 41146,
    "openDate": "2025-06-12",
    "manager": "Wendell Price",
    "status": "active",
    "lat": 9.4259,
    "lng": -164.893
  },
  {
    "id": "ST0167",
    "name": "HyperRetail Philadelphia Mall",
    "region": "Central",
    "city": "New York",
    "address": "2328 Kamron Meadows",
    "sqft": 30306,
    "openDate": "2019-01-18",
    "manager": "Terrence Cormier",
    "status": "active",
    "lat": -36.6614,
    "lng": 136.357
  },
  {
    "id": "ST0168",
    "name": "HyperRetail Los Angeles Center",
    "region": "North",
    "city": "Dallas",
    "address": "4560 Weimann Gateway",
    "sqft": 118168,
    "openDate": "2021-02-17",
    "manager": "Guy Dooley",
    "status": "active",
    "lat": -4.169,
    "lng": 104.9075
  },
  {
    "id": "ST0169",
    "name": "HyperRetail San Antonio Market",
    "region": "Central",
    "city": "Houston",
    "address": "321 S 7th Street",
    "sqft": 36165,
    "openDate": "2022-08-06",
    "manager": "Santos Hansen-Dare",
    "status": "active",
    "lat": 18.6002,
    "lng": -165.4973
  },
  {
    "id": "ST0170",
    "name": "HyperRetail Dallas Mall",
    "region": "East",
    "city": "Philadelphia",
    "address": "6990 W Church Street",
    "sqft": 82566,
    "openDate": "2024-05-02",
    "manager": "Sherman Mosciski-Bahringer",
    "status": "closed",
    "lat": 67.2975,
    "lng": -148.9925
  },
  {
    "id": "ST0171",
    "name": "HyperRetail New York Market",
    "region": "South",
    "city": "Chicago",
    "address": "2346 Bailey Hill",
    "sqft": 35139,
    "openDate": "2025-04-13",
    "manager": "Claire Turcotte",
    "status": "active",
    "lat": 45.3832,
    "lng": -102.1202
  },
  {
    "id": "ST0172",
    "name": "HyperRetail San Jose Mall",
    "region": "Central",
    "city": "New York",
    "address": "84815 Fern Loop",
    "sqft": 123972,
    "openDate": "2025-02-22",
    "manager": "Manuel Weber",
    "status": "active",
    "lat": 51.193,
    "lng": -19.6609
  },
  {
    "id": "ST0173",
    "name": "HyperRetail Philadelphia Plaza",
    "region": "East",
    "city": "Chicago",
    "address": "851 Johns Extension",
    "sqft": 21863,
    "openDate": "2019-07-29",
    "manager": "Mrs. Velma Denesik",
    "status": "active",
    "lat": 18.7847,
    "lng": 103.5872
  },
  {
    "id": "ST0174",
    "name": "HyperRetail San Diego Mall",
    "region": "East",
    "city": "Dallas",
    "address": "56306 Anderson Crossing",
    "sqft": 38585,
    "openDate": "2023-12-25",
    "manager": "Bryan Howe",
    "status": "active",
    "lat": -20.6815,
    "lng": -36.7944
  },
  {
    "id": "ST0175",
    "name": "HyperRetail Dallas Center",
    "region": "Central",
    "city": "Phoenix",
    "address": "428 Burley Light",
    "sqft": 85741,
    "openDate": "2025-10-02",
    "manager": "Karen Lueilwitz",
    "status": "active",
    "lat": 11.8833,
    "lng": 178.0496
  },
  {
    "id": "ST0176",
    "name": "HyperRetail Dallas Plaza",
    "region": "East",
    "city": "Chicago",
    "address": "209 Orland Bypass",
    "sqft": 126904,
    "openDate": "2023-12-22",
    "manager": "Dave Oberbrunner",
    "status": "active",
    "lat": -30.5296,
    "lng": 160.5496
  },
  {
    "id": "ST0177",
    "name": "HyperRetail Philadelphia Market",
    "region": "East",
    "city": "Chicago",
    "address": "1919 Peyton Court",
    "sqft": 118379,
    "openDate": "2020-08-23",
    "manager": "Lee Herzog",
    "status": "closed",
    "lat": 34.3308,
    "lng": 66.3531
  },
  {
    "id": "ST0178",
    "name": "HyperRetail San Diego Market",
    "region": "North",
    "city": "Los Angeles",
    "address": "405 Ardith Points",
    "sqft": 20544,
    "openDate": "2024-02-17",
    "manager": "Jose Harris",
    "status": "active",
    "lat": -1.8641,
    "lng": -31.0757
  },
  {
    "id": "ST0179",
    "name": "HyperRetail Phoenix Center",
    "region": "North",
    "city": "Philadelphia",
    "address": "1190 Vern Walk",
    "sqft": 97917,
    "openDate": "2020-05-01",
    "manager": "Brendan Buckridge",
    "status": "active",
    "lat": -47.3537,
    "lng": -118.9786
  },
  {
    "id": "ST0180",
    "name": "HyperRetail New York Plaza",
    "region": "North",
    "city": "San Antonio",
    "address": "265 Bruen Light",
    "sqft": 63158,
    "openDate": "2016-08-10",
    "manager": "Gregory Goyette",
    "status": "active",
    "lat": 26.5424,
    "lng": 101.6733
  },
  {
    "id": "ST0181",
    "name": "HyperRetail Dallas Market",
    "region": "South",
    "city": "Chicago",
    "address": "898 E 5th Street",
    "sqft": 83683,
    "openDate": "2021-11-01",
    "manager": "Angel Wolff",
    "status": "active",
    "lat": -86.9984,
    "lng": 107.6969
  },
  {
    "id": "ST0182",
    "name": "HyperRetail Los Angeles Mall",
    "region": "Central",
    "city": "San Diego",
    "address": "47538 Schneider Center",
    "sqft": 132635,
    "openDate": "2024-01-06",
    "manager": "Jeannie Toy",
    "status": "active",
    "lat": -15.1527,
    "lng": -14.5279
  },
  {
    "id": "ST0183",
    "name": "HyperRetail Philadelphia Center",
    "region": "East",
    "city": "San Antonio",
    "address": "6901 Padberg Run",
    "sqft": 71480,
    "openDate": "2015-11-22",
    "manager": "Jennifer Renner V",
    "status": "active",
    "lat": -11.8706,
    "lng": 146.5351
  },
  {
    "id": "ST0184",
    "name": "HyperRetail Los Angeles Market",
    "region": "East",
    "city": "Chicago",
    "address": "4367 Prohaska Junction",
    "sqft": 96573,
    "openDate": "2022-04-02",
    "manager": "Terrence Mayer",
    "status": "active",
    "lat": 28.0626,
    "lng": -10.1737
  },
  {
    "id": "ST0185",
    "name": "HyperRetail Los Angeles Center",
    "region": "South",
    "city": "Philadelphia",
    "address": "20780 Filomena Light",
    "sqft": 121428,
    "openDate": "2025-05-24",
    "manager": "Jean Harris",
    "status": "active",
    "lat": 12.1304,
    "lng": -31.5349
  },
  {
    "id": "ST0186",
    "name": "HyperRetail San Diego Plaza",
    "region": "West",
    "city": "Philadelphia",
    "address": "2441 Devon Unions",
    "sqft": 74483,
    "openDate": "2025-03-20",
    "manager": "Willis Deckow",
    "status": "active",
    "lat": -88.8365,
    "lng": -30.4149
  },
  {
    "id": "ST0187",
    "name": "HyperRetail Phoenix Market",
    "region": "South",
    "city": "Chicago",
    "address": "103 Braun Views",
    "sqft": 36717,
    "openDate": "2024-01-31",
    "manager": "Christian Bosco",
    "status": "active",
    "lat": 38.5946,
    "lng": 18.1914
  },
  {
    "id": "ST0188",
    "name": "HyperRetail Houston Mall",
    "region": "North",
    "city": "Philadelphia",
    "address": "96120 Stoltenberg Course",
    "sqft": 95025,
    "openDate": "2019-12-13",
    "manager": "Dr. Bill Murazik",
    "status": "active",
    "lat": 20.0964,
    "lng": 89.9496
  },
  {
    "id": "ST0189",
    "name": "HyperRetail Chicago Market",
    "region": "South",
    "city": "Philadelphia",
    "address": "21211 E Front Street",
    "sqft": 70015,
    "openDate": "2022-10-06",
    "manager": "Billie McKenzie",
    "status": "active",
    "lat": -77.8722,
    "lng": 41.5515
  },
  {
    "id": "ST0190",
    "name": "HyperRetail Dallas Plaza",
    "region": "North",
    "city": "New York",
    "address": "275 E 11th Street",
    "sqft": 95267,
    "openDate": "2022-12-30",
    "manager": "Vicki Schulist",
    "status": "active",
    "lat": -20.2588,
    "lng": 53.7764
  },
  {
    "id": "ST0191",
    "name": "HyperRetail Dallas Center",
    "region": "South",
    "city": "San Diego",
    "address": "92031 Torphy Ranch",
    "sqft": 79607,
    "openDate": "2019-03-16",
    "manager": "Simon Torphy",
    "status": "active",
    "lat": 77.7133,
    "lng": -173.1797
  },
  {
    "id": "ST0192",
    "name": "HyperRetail San Jose Center",
    "region": "West",
    "city": "Chicago",
    "address": "28603 Anais Turnpike",
    "sqft": 37892,
    "openDate": "2023-04-08",
    "manager": "Carmen Conn",
    "status": "active",
    "lat": -52.298,
    "lng": 0.021
  },
  {
    "id": "ST0193",
    "name": "HyperRetail Phoenix Center",
    "region": "South",
    "city": "Chicago",
    "address": "707 Hahn Port",
    "sqft": 73389,
    "openDate": "2016-07-07",
    "manager": "Natasha Schneider-Oberbrunner",
    "status": "maintenance",
    "lat": -20.5309,
    "lng": -70.7812
  },
  {
    "id": "ST0194",
    "name": "HyperRetail Houston Market",
    "region": "Central",
    "city": "San Diego",
    "address": "71933 Breanne Dam",
    "sqft": 107322,
    "openDate": "2016-03-07",
    "manager": "Duane Murray",
    "status": "active",
    "lat": 0.8021,
    "lng": -47.8939
  },
  {
    "id": "ST0195",
    "name": "HyperRetail Houston Plaza",
    "region": "East",
    "city": "Chicago",
    "address": "3762 Jakubowski Avenue",
    "sqft": 54991,
    "openDate": "2020-08-05",
    "manager": "Casey Schulist PhD",
    "status": "active",
    "lat": 53.1105,
    "lng": 90.4604
  },
  {
    "id": "ST0196",
    "name": "HyperRetail Houston Market",
    "region": "West",
    "city": "Dallas",
    "address": "26963 Eulalia Shores",
    "sqft": 28116,
    "openDate": "2016-10-19",
    "manager": "Emma Schulist",
    "status": "active",
    "lat": -32.9503,
    "lng": 35.9884
  },
  {
    "id": "ST0197",
    "name": "HyperRetail Dallas Mall",
    "region": "Central",
    "city": "Philadelphia",
    "address": "98887 East Avenue",
    "sqft": 39070,
    "openDate": "2016-09-18",
    "manager": "Ryan Stehr",
    "status": "active",
    "lat": -30.309,
    "lng": -160.642
  },
  {
    "id": "ST0198",
    "name": "HyperRetail Philadelphia Center",
    "region": "West",
    "city": "Chicago",
    "address": "3133 Priscilla Dale",
    "sqft": 131985,
    "openDate": "2025-10-10",
    "manager": "Melinda Boehm-Harber",
    "status": "active",
    "lat": -47.5879,
    "lng": 90.6571
  },
  {
    "id": "ST0199",
    "name": "HyperRetail San Jose Market",
    "region": "Central",
    "city": "San Jose",
    "address": "37881 S Jefferson Street",
    "sqft": 97719,
    "openDate": "2018-05-30",
    "manager": "Sonya Fritsch",
    "status": "active",
    "lat": 24.9031,
    "lng": -119.211
  },
  {
    "id": "ST0200",
    "name": "HyperRetail Houston Plaza",
    "region": "Central",
    "city": "San Diego",
    "address": "528 Geraldine Drive",
    "sqft": 41876,
    "openDate": "2017-08-17",
    "manager": "Lorenzo Nicolas",
    "status": "active",
    "lat": 39.6691,
    "lng": 28.0181
  },
  {
    "id": "ST0201",
    "name": "HyperRetail Philadelphia Mall",
    "region": "West",
    "city": "Phoenix",
    "address": "8898 S Main Avenue",
    "sqft": 141403,
    "openDate": "2024-10-09",
    "manager": "Lora Osinski",
    "status": "active",
    "lat": 75.9946,
    "lng": -49.3262
  },
  {
    "id": "ST0202",
    "name": "HyperRetail Los Angeles Market",
    "region": "South",
    "city": "San Diego",
    "address": "26438 Alysa Center",
    "sqft": 144985,
    "openDate": "2022-05-01",
    "manager": "Jody Feest",
    "status": "active",
    "lat": -45.2175,
    "lng": 46.6662
  },
  {
    "id": "ST0203",
    "name": "HyperRetail San Jose Market",
    "region": "South",
    "city": "Los Angeles",
    "address": "935 Zelda Branch",
    "sqft": 138497,
    "openDate": "2020-05-21",
    "manager": "Camille Hills",
    "status": "active",
    "lat": 4.9615,
    "lng": -56.127
  },
  {
    "id": "ST0204",
    "name": "HyperRetail Los Angeles Center",
    "region": "North",
    "city": "Phoenix",
    "address": "8051 Johns Cove",
    "sqft": 28206,
    "openDate": "2016-01-03",
    "manager": "Ethel Bins",
    "status": "active",
    "lat": 66.4515,
    "lng": 34.3319
  },
  {
    "id": "ST0205",
    "name": "HyperRetail Philadelphia Mall",
    "region": "East",
    "city": "Phoenix",
    "address": "8818 Veterans Memorial Highway",
    "sqft": 104337,
    "openDate": "2019-02-04",
    "manager": "Judy Gorczany",
    "status": "active",
    "lat": 45.3806,
    "lng": 155.0967
  },
  {
    "id": "ST0206",
    "name": "HyperRetail Philadelphia Center",
    "region": "South",
    "city": "San Diego",
    "address": "3984 Thalia Alley",
    "sqft": 64852,
    "openDate": "2022-01-24",
    "manager": "Velma Kris",
    "status": "active",
    "lat": -50.4657,
    "lng": -142.0541
  },
  {
    "id": "ST0207",
    "name": "HyperRetail New York Center",
    "region": "Central",
    "city": "Philadelphia",
    "address": "378 Nicholaus Course",
    "sqft": 115272,
    "openDate": "2025-02-24",
    "manager": "Marco Ward",
    "status": "active",
    "lat": 37.0013,
    "lng": -137.1094
  },
  {
    "id": "ST0208",
    "name": "HyperRetail Houston Center",
    "region": "South",
    "city": "Houston",
    "address": "47677 Berniece Route",
    "sqft": 24626,
    "openDate": "2016-08-27",
    "manager": "Jonathan Feest",
    "status": "active",
    "lat": -55.8225,
    "lng": -81.1776
  },
  {
    "id": "ST0209",
    "name": "HyperRetail New York Center",
    "region": "South",
    "city": "New York",
    "address": "537 Pfannerstill Points",
    "sqft": 125960,
    "openDate": "2020-09-27",
    "manager": "Drew Streich",
    "status": "active",
    "lat": -84.29,
    "lng": 100.0967
  },
  {
    "id": "ST0210",
    "name": "HyperRetail Philadelphia Mall",
    "region": "North",
    "city": "San Jose",
    "address": "539 Romaguera Forge",
    "sqft": 52318,
    "openDate": "2018-01-03",
    "manager": "Mr. Frankie Jacobi-Stiedemann",
    "status": "active",
    "lat": 37.147,
    "lng": 12.4779
  },
  {
    "id": "ST0211",
    "name": "HyperRetail Houston Market",
    "region": "North",
    "city": "Houston",
    "address": "9218 Ettie Union",
    "sqft": 127578,
    "openDate": "2025-02-20",
    "manager": "Tabitha Wilderman",
    "status": "active",
    "lat": -47.9579,
    "lng": 13.5305
  },
  {
    "id": "ST0212",
    "name": "HyperRetail New York Plaza",
    "region": "North",
    "city": "Phoenix",
    "address": "1224 Hodkiewicz Knoll",
    "sqft": 133868,
    "openDate": "2016-01-22",
    "manager": "Simon Rippin",
    "status": "active",
    "lat": -70.7759,
    "lng": 122.3992
  },
  {
    "id": "ST0213",
    "name": "HyperRetail San Jose Mall",
    "region": "North",
    "city": "San Diego",
    "address": "92336 Rosalinda Shore",
    "sqft": 139055,
    "openDate": "2024-08-08",
    "manager": "Trevor Casper",
    "status": "active",
    "lat": -86.2636,
    "lng": 147.3947
  },
  {
    "id": "ST0214",
    "name": "HyperRetail San Diego Plaza",
    "region": "North",
    "city": "Dallas",
    "address": "510 Vergie Light",
    "sqft": 52105,
    "openDate": "2018-06-14",
    "manager": "Mr. Harry Kiehn",
    "status": "active",
    "lat": -51.7886,
    "lng": 4.241
  },
  {
    "id": "ST0215",
    "name": "HyperRetail Los Angeles Market",
    "region": "Central",
    "city": "San Jose",
    "address": "9088 Windsor Drive",
    "sqft": 45898,
    "openDate": "2019-10-09",
    "manager": "Mattie Thiel",
    "status": "maintenance",
    "lat": -19.2023,
    "lng": 91.6333
  },
  {
    "id": "ST0216",
    "name": "HyperRetail Philadelphia Mall",
    "region": "North",
    "city": "Philadelphia",
    "address": "711 Isadore Loop",
    "sqft": 127877,
    "openDate": "2017-11-13",
    "manager": "Felipe Oberbrunner",
    "status": "active",
    "lat": -68.72,
    "lng": 16.9363
  },
  {
    "id": "ST0217",
    "name": "HyperRetail Phoenix Plaza",
    "region": "West",
    "city": "Houston",
    "address": "41092 Vergie Flats",
    "sqft": 143973,
    "openDate": "2016-02-20",
    "manager": "Whitney Price",
    "status": "active",
    "lat": -19.4008,
    "lng": -138.3037
  },
  {
    "id": "ST0218",
    "name": "HyperRetail San Jose Center",
    "region": "North",
    "city": "Philadelphia",
    "address": "815 Pleasant Street",
    "sqft": 69610,
    "openDate": "2021-01-19",
    "manager": "Ted Runte",
    "status": "active",
    "lat": -55.4371,
    "lng": 47.9748
  },
  {
    "id": "ST0219",
    "name": "HyperRetail Los Angeles Mall",
    "region": "Central",
    "city": "Philadelphia",
    "address": "788 Predovic Spur",
    "sqft": 140130,
    "openDate": "2025-02-19",
    "manager": "Leo Haley",
    "status": "active",
    "lat": 76.7355,
    "lng": -51.8552
  },
  {
    "id": "ST0220",
    "name": "HyperRetail San Antonio Plaza",
    "region": "Central",
    "city": "Philadelphia",
    "address": "853 Brenna Key",
    "sqft": 45569,
    "openDate": "2016-02-26",
    "manager": "Lynda Maggio",
    "status": "maintenance",
    "lat": 18.1702,
    "lng": 31.1442
  },
  {
    "id": "ST0221",
    "name": "HyperRetail San Antonio Center",
    "region": "South",
    "city": "San Diego",
    "address": "721 Kovacek Springs",
    "sqft": 81427,
    "openDate": "2024-01-10",
    "manager": "Doris Tillman",
    "status": "active",
    "lat": -54.1178,
    "lng": 66.1933
  },
  {
    "id": "ST0222",
    "name": "HyperRetail Phoenix Plaza",
    "region": "North",
    "city": "San Antonio",
    "address": "3807 Hessel Ferry",
    "sqft": 31319,
    "openDate": "2021-12-17",
    "manager": "Stephanie Corkery",
    "status": "active",
    "lat": 7.9152,
    "lng": -147.6866
  },
  {
    "id": "ST0223",
    "name": "HyperRetail Chicago Market",
    "region": "Central",
    "city": "New York",
    "address": "5218 Evelyn Via",
    "sqft": 34493,
    "openDate": "2024-03-18",
    "manager": "Toby DuBuque",
    "status": "active",
    "lat": -46.7605,
    "lng": 16.8038
  },
  {
    "id": "ST0224",
    "name": "HyperRetail Phoenix Market",
    "region": "South",
    "city": "Philadelphia",
    "address": "58171 Terence Park",
    "sqft": 62619,
    "openDate": "2023-10-25",
    "manager": "Raquel Buckridge",
    "status": "active",
    "lat": 81.3713,
    "lng": 0.723
  },
  {
    "id": "ST0225",
    "name": "HyperRetail San Diego Center",
    "region": "East",
    "city": "Philadelphia",
    "address": "103 Jessyca Landing",
    "sqft": 48155,
    "openDate": "2023-07-23",
    "manager": "Gerardo VonRueden",
    "status": "active",
    "lat": 34.4549,
    "lng": -56.8323
  },
  {
    "id": "ST0226",
    "name": "HyperRetail Chicago Market",
    "region": "West",
    "city": "Phoenix",
    "address": "513 W Main Street",
    "sqft": 91963,
    "openDate": "2020-02-21",
    "manager": "Jacquelyn Schroeder",
    "status": "active",
    "lat": 40.52,
    "lng": -23.87
  },
  {
    "id": "ST0227",
    "name": "HyperRetail San Diego Market",
    "region": "Central",
    "city": "Houston",
    "address": "879 Mueller Greens",
    "sqft": 116412,
    "openDate": "2020-05-20",
    "manager": "Ronald Rodriguez",
    "status": "active",
    "lat": -80.7726,
    "lng": -172.7917
  },
  {
    "id": "ST0228",
    "name": "HyperRetail Phoenix Plaza",
    "region": "West",
    "city": "Houston",
    "address": "6743 Nicolas Lights",
    "sqft": 44234,
    "openDate": "2019-03-19",
    "manager": "Manuel Bruen",
    "status": "active",
    "lat": -37.456,
    "lng": -5.5118
  },
  {
    "id": "ST0229",
    "name": "HyperRetail San Diego Plaza",
    "region": "East",
    "city": "Houston",
    "address": "19573 Pennsylvania Avenue",
    "sqft": 75524,
    "openDate": "2017-10-10",
    "manager": "Danielle Windler",
    "status": "active",
    "lat": 37.3102,
    "lng": 42.5847
  },
  {
    "id": "ST0230",
    "name": "HyperRetail Chicago Center",
    "region": "East",
    "city": "San Antonio",
    "address": "52400 Alanis Wall",
    "sqft": 66535,
    "openDate": "2023-05-28",
    "manager": "Alberta Smitham",
    "status": "active",
    "lat": 42.8703,
    "lng": -124.868
  },
  {
    "id": "ST0231",
    "name": "HyperRetail Dallas Center",
    "region": "Central",
    "city": "San Antonio",
    "address": "7778 Lincoln Street",
    "sqft": 94563,
    "openDate": "2022-09-25",
    "manager": "Lila Larkin",
    "status": "active",
    "lat": 71.5316,
    "lng": -115.7702
  },
  {
    "id": "ST0232",
    "name": "HyperRetail Los Angeles Plaza",
    "region": "South",
    "city": "Dallas",
    "address": "653 Dicki Light",
    "sqft": 92215,
    "openDate": "2017-04-15",
    "manager": "Mr. Wesley Strosin",
    "status": "active",
    "lat": 49.8237,
    "lng": -51.8065
  },
  {
    "id": "ST0233",
    "name": "HyperRetail Dallas Center",
    "region": "North",
    "city": "Chicago",
    "address": "8177 N Locust Street",
    "sqft": 35483,
    "openDate": "2019-06-24",
    "manager": "Emily Effertz",
    "status": "active",
    "lat": 44.6429,
    "lng": -64.0557
  },
  {
    "id": "ST0234",
    "name": "HyperRetail Dallas Center",
    "region": "West",
    "city": "Dallas",
    "address": "774 Velda Ford",
    "sqft": 113502,
    "openDate": "2018-11-14",
    "manager": "Johnny Bosco",
    "status": "active",
    "lat": -80.4912,
    "lng": 115.791
  },
  {
    "id": "ST0235",
    "name": "HyperRetail San Diego Plaza",
    "region": "North",
    "city": "San Diego",
    "address": "85450 Daniel Crossroad",
    "sqft": 111966,
    "openDate": "2022-01-12",
    "manager": "Luther Wisozk",
    "status": "active",
    "lat": -67.6607,
    "lng": 152.1374
  },
  {
    "id": "ST0236",
    "name": "HyperRetail Los Angeles Market",
    "region": "West",
    "city": "Philadelphia",
    "address": "23646 Leatha Fields",
    "sqft": 83672,
    "openDate": "2021-10-01",
    "manager": "Barry Collins",
    "status": "active",
    "lat": -54.44,
    "lng": 112.7332
  },
  {
    "id": "ST0237",
    "name": "HyperRetail Dallas Mall",
    "region": "North",
    "city": "San Diego",
    "address": "44568 Rohan Forest",
    "sqft": 124665,
    "openDate": "2020-03-31",
    "manager": "Yvonne Watsica DVM",
    "status": "active",
    "lat": 0.4269,
    "lng": -76.3633
  },
  {
    "id": "ST0238",
    "name": "HyperRetail Houston Center",
    "region": "West",
    "city": "Dallas",
    "address": "84338 Albert Road",
    "sqft": 21560,
    "openDate": "2025-04-30",
    "manager": "Evan Berge",
    "status": "active",
    "lat": -74.6275,
    "lng": 62.1922
  },
  {
    "id": "ST0239",
    "name": "HyperRetail San Jose Mall",
    "region": "East",
    "city": "Los Angeles",
    "address": "3244 Keebler Shore",
    "sqft": 29736,
    "openDate": "2018-05-01",
    "manager": "Tamara Stamm",
    "status": "active",
    "lat": -54.9075,
    "lng": -88.0728
  },
  {
    "id": "ST0240",
    "name": "HyperRetail Philadelphia Market",
    "region": "West",
    "city": "Houston",
    "address": "95417 Griffin Canyon",
    "sqft": 75244,
    "openDate": "2017-06-28",
    "manager": "Cheryl Bayer",
    "status": "active",
    "lat": 79.8801,
    "lng": 123.8377
  },
  {
    "id": "ST0241",
    "name": "HyperRetail Chicago Mall",
    "region": "North",
    "city": "Phoenix",
    "address": "1648 Hegmann Mountains",
    "sqft": 104992,
    "openDate": "2022-07-03",
    "manager": "Veronica Breitenberg III",
    "status": "active",
    "lat": -72.091,
    "lng": -34.473
  },
  {
    "id": "ST0242",
    "name": "HyperRetail San Diego Market",
    "region": "Central",
    "city": "Dallas",
    "address": "685 Graham Ramp",
    "sqft": 87237,
    "openDate": "2022-12-23",
    "manager": "Otis Klocko",
    "status": "active",
    "lat": -53.7365,
    "lng": 92.7996
  },
  {
    "id": "ST0243",
    "name": "HyperRetail Chicago Mall",
    "region": "North",
    "city": "Houston",
    "address": "94014 Tara Mills",
    "sqft": 99347,
    "openDate": "2024-03-07",
    "manager": "Scott Hamill",
    "status": "active",
    "lat": 63.3688,
    "lng": 5.5099
  },
  {
    "id": "ST0244",
    "name": "HyperRetail Philadelphia Plaza",
    "region": "East",
    "city": "San Diego",
    "address": "90795 Stoltenberg Parks",
    "sqft": 110340,
    "openDate": "2025-01-11",
    "manager": "Miss Kristine Watsica",
    "status": "active",
    "lat": -67.2993,
    "lng": -167.3226
  },
  {
    "id": "ST0245",
    "name": "HyperRetail Philadelphia Center",
    "region": "West",
    "city": "Dallas",
    "address": "2856 Stefan Rest",
    "sqft": 101056,
    "openDate": "2023-02-11",
    "manager": "Jill Sporer",
    "status": "active",
    "lat": 73.5888,
    "lng": 61.1116
  },
  {
    "id": "ST0246",
    "name": "HyperRetail San Diego Mall",
    "region": "West",
    "city": "Chicago",
    "address": "61173 Durgan Fall",
    "sqft": 110454,
    "openDate": "2019-08-31",
    "manager": "Ronald Hansen-Kirlin",
    "status": "active",
    "lat": -63.3675,
    "lng": -20.5814
  },
  {
    "id": "ST0247",
    "name": "HyperRetail San Jose Market",
    "region": "South",
    "city": "Chicago",
    "address": "92379 Smitham Mountain",
    "sqft": 125114,
    "openDate": "2025-08-13",
    "manager": "Carol Kilback",
    "status": "active",
    "lat": -35.6743,
    "lng": 138.686
  },
  {
    "id": "ST0248",
    "name": "HyperRetail New York Plaza",
    "region": "East",
    "city": "Philadelphia",
    "address": "9636 Cedar Road",
    "sqft": 37380,
    "openDate": "2016-01-24",
    "manager": "Sean Kilback IV",
    "status": "active",
    "lat": 56.3513,
    "lng": -49.1746
  },
  {
    "id": "ST0249",
    "name": "HyperRetail New York Market",
    "region": "East",
    "city": "Chicago",
    "address": "3276 W State Street",
    "sqft": 140823,
    "openDate": "2015-11-10",
    "manager": "Donna Feil",
    "status": "active",
    "lat": -78.517,
    "lng": -36.3146
  },
  {
    "id": "ST0250",
    "name": "HyperRetail Houston Plaza",
    "region": "South",
    "city": "Chicago",
    "address": "99960 Hall Street",
    "sqft": 146961,
    "openDate": "2021-10-11",
    "manager": "Sylvia Murphy",
    "status": "active",
    "lat": 66.5161,
    "lng": 126.1816
  },
  {
    "id": "ST0251",
    "name": "HyperRetail Los Angeles Center",
    "region": "Central",
    "city": "Philadelphia",
    "address": "63275 Kuhn Parkway",
    "sqft": 37334,
    "openDate": "2021-05-20",
    "manager": "Latoya Fay Jr.",
    "status": "active",
    "lat": -36.0127,
    "lng": -75.8722
  },
  {
    "id": "ST0252",
    "name": "HyperRetail Phoenix Mall",
    "region": "North",
    "city": "San Antonio",
    "address": "2390 Oak Street",
    "sqft": 95038,
    "openDate": "2016-12-27",
    "manager": "Jeremy Metz",
    "status": "active",
    "lat": 53.2189,
    "lng": -29.0395
  },
  {
    "id": "ST0253",
    "name": "HyperRetail New York Center",
    "region": "South",
    "city": "Phoenix",
    "address": "5209 Chapel Close",
    "sqft": 105975,
    "openDate": "2017-11-09",
    "manager": "Maxine Rohan II",
    "status": "active",
    "lat": 2.6081,
    "lng": 0.7003
  },
  {
    "id": "ST0254",
    "name": "HyperRetail Dallas Market",
    "region": "East",
    "city": "San Diego",
    "address": "6577 Manor Drive",
    "sqft": 79395,
    "openDate": "2016-06-11",
    "manager": "Eleanor Krajcik DDS",
    "status": "active",
    "lat": 34.0418,
    "lng": -150.0397
  },
  {
    "id": "ST0255",
    "name": "HyperRetail Dallas Market",
    "region": "Central",
    "city": "Phoenix",
    "address": "1150 Reinger Trafficway",
    "sqft": 133622,
    "openDate": "2023-10-15",
    "manager": "Angelina Lynch",
    "status": "active",
    "lat": 58.0866,
    "lng": 169.8644
  },
  {
    "id": "ST0256",
    "name": "HyperRetail Houston Center",
    "region": "East",
    "city": "Chicago",
    "address": "5886 Letitia Drive",
    "sqft": 42837,
    "openDate": "2024-07-15",
    "manager": "Clifford Satterfield IV",
    "status": "active",
    "lat": -49.0533,
    "lng": -176.5644
  },
  {
    "id": "ST0257",
    "name": "HyperRetail Los Angeles Plaza",
    "region": "South",
    "city": "Houston",
    "address": "830 Market Square",
    "sqft": 83080,
    "openDate": "2022-07-15",
    "manager": "Shirley Kirlin",
    "status": "active",
    "lat": 37.7409,
    "lng": -53.3215
  },
  {
    "id": "ST0258",
    "name": "HyperRetail San Jose Center",
    "region": "North",
    "city": "Philadelphia",
    "address": "27926 Nya Burgs",
    "sqft": 30297,
    "openDate": "2025-08-10",
    "manager": "Krista Collier",
    "status": "active",
    "lat": -15.4065,
    "lng": 38.1229
  },
  {
    "id": "ST0259",
    "name": "HyperRetail San Jose Mall",
    "region": "East",
    "city": "New York",
    "address": "85017 Trantow Mountain",
    "sqft": 76269,
    "openDate": "2017-11-29",
    "manager": "Santos Friesen",
    "status": "active",
    "lat": 69.7365,
    "lng": 147.1916
  },
  {
    "id": "ST0260",
    "name": "HyperRetail Dallas Market",
    "region": "South",
    "city": "Phoenix",
    "address": "9909 N Broadway",
    "sqft": 26566,
    "openDate": "2021-04-20",
    "manager": "Barry Williamson",
    "status": "active",
    "lat": -4.9953,
    "lng": 28.7387
  },
  {
    "id": "ST0261",
    "name": "HyperRetail Houston Mall",
    "region": "Central",
    "city": "Chicago",
    "address": "479 Becker Squares",
    "sqft": 95211,
    "openDate": "2021-11-27",
    "manager": "Pearl Renner",
    "status": "active",
    "lat": 1.8828,
    "lng": -156.9957
  },
  {
    "id": "ST0262",
    "name": "HyperRetail Chicago Plaza",
    "region": "South",
    "city": "Los Angeles",
    "address": "83497 Kings Highway",
    "sqft": 63534,
    "openDate": "2023-03-29",
    "manager": "Greg Schimmel",
    "status": "active",
    "lat": 55.9231,
    "lng": 157.5504
  },
  {
    "id": "ST0263",
    "name": "HyperRetail San Jose Center",
    "region": "North",
    "city": "Philadelphia",
    "address": "69957 Albertha Flats",
    "sqft": 89438,
    "openDate": "2021-04-30",
    "manager": "Abraham Reynolds",
    "status": "closed",
    "lat": 66.092,
    "lng": -76.496
  },
  {
    "id": "ST0264",
    "name": "HyperRetail San Jose Center",
    "region": "South",
    "city": "Philadelphia",
    "address": "401 Wilbert Courts",
    "sqft": 130932,
    "openDate": "2025-04-01",
    "manager": "Rosemarie Beer",
    "status": "active",
    "lat": 7.8817,
    "lng": -142.6478
  },
  {
    "id": "ST0265",
    "name": "HyperRetail San Antonio Mall",
    "region": "East",
    "city": "New York",
    "address": "761 Stark Shoal",
    "sqft": 126235,
    "openDate": "2024-02-15",
    "manager": "Katie Heidenreich",
    "status": "active",
    "lat": -46.8638,
    "lng": 101.4408
  },
  {
    "id": "ST0266",
    "name": "HyperRetail New York Mall",
    "region": "South",
    "city": "San Diego",
    "address": "6733 S Jefferson Street",
    "sqft": 50977,
    "openDate": "2023-12-14",
    "manager": "Della Feil",
    "status": "active",
    "lat": -88.3644,
    "lng": -113.2528
  },
  {
    "id": "ST0267",
    "name": "HyperRetail San Antonio Plaza",
    "region": "East",
    "city": "Philadelphia",
    "address": "8905 Vine Street",
    "sqft": 105065,
    "openDate": "2024-06-07",
    "manager": "Marshall Stroman",
    "status": "active",
    "lat": 76.649,
    "lng": 78.4851
  },
  {
    "id": "ST0268",
    "name": "HyperRetail San Antonio Mall",
    "region": "South",
    "city": "New York",
    "address": "52358 E Elm Street",
    "sqft": 36174,
    "openDate": "2016-03-01",
    "manager": "Darrin Franey",
    "status": "active",
    "lat": 34.2222,
    "lng": 142.4001
  },
  {
    "id": "ST0269",
    "name": "HyperRetail Dallas Market",
    "region": "South",
    "city": "Phoenix",
    "address": "315 Marta Fords",
    "sqft": 55551,
    "openDate": "2024-08-18",
    "manager": "Vincent Breitenberg",
    "status": "active",
    "lat": -20.4682,
    "lng": -129.9712
  },
  {
    "id": "ST0270",
    "name": "HyperRetail Houston Center",
    "region": "South",
    "city": "New York",
    "address": "9371 Elsa Rue",
    "sqft": 146738,
    "openDate": "2020-09-08",
    "manager": "Angelica Ledner",
    "status": "active",
    "lat": 87.0014,
    "lng": 103.0794
  },
  {
    "id": "ST0271",
    "name": "HyperRetail Chicago Mall",
    "region": "West",
    "city": "New York",
    "address": "863 Jerrell Points",
    "sqft": 21009,
    "openDate": "2025-03-09",
    "manager": "Katrina Ritchie-Gottlieb",
    "status": "active",
    "lat": 61.492,
    "lng": 67.3884
  },
  {
    "id": "ST0272",
    "name": "HyperRetail New York Market",
    "region": "Central",
    "city": "Phoenix",
    "address": "3291 West End",
    "sqft": 35472,
    "openDate": "2025-02-05",
    "manager": "Robin Heidenreich",
    "status": "active",
    "lat": -44.2828,
    "lng": 16.1284
  },
  {
    "id": "ST0273",
    "name": "HyperRetail Dallas Plaza",
    "region": "North",
    "city": "Chicago",
    "address": "322 Lee Street",
    "sqft": 113914,
    "openDate": "2018-10-16",
    "manager": "Edna Hilll",
    "status": "active",
    "lat": 65.9209,
    "lng": 171.5244
  },
  {
    "id": "ST0274",
    "name": "HyperRetail Dallas Market",
    "region": "East",
    "city": "Dallas",
    "address": "3307 Florida Fords",
    "sqft": 54813,
    "openDate": "2020-10-08",
    "manager": "Roxanne Stiedemann",
    "status": "active",
    "lat": -87.7327,
    "lng": -50.5168
  },
  {
    "id": "ST0275",
    "name": "HyperRetail San Antonio Center",
    "region": "North",
    "city": "Houston",
    "address": "16790 Lawrence Street",
    "sqft": 49359,
    "openDate": "2022-07-14",
    "manager": "Alison Runolfsson",
    "status": "active",
    "lat": -65.3305,
    "lng": 112.1858
  },
  {
    "id": "ST0276",
    "name": "HyperRetail Dallas Mall",
    "region": "Central",
    "city": "Phoenix",
    "address": "796 Woodlands",
    "sqft": 26834,
    "openDate": "2023-07-30",
    "manager": "Alberta Monahan",
    "status": "maintenance",
    "lat": -7.5666,
    "lng": -123.7097
  },
  {
    "id": "ST0277",
    "name": "HyperRetail Houston Market",
    "region": "East",
    "city": "Philadelphia",
    "address": "3042 Leannon Neck",
    "sqft": 113888,
    "openDate": "2016-12-10",
    "manager": "Miriam Murray",
    "status": "active",
    "lat": -9.967,
    "lng": -161.5805
  },
  {
    "id": "ST0278",
    "name": "HyperRetail New York Plaza",
    "region": "East",
    "city": "Phoenix",
    "address": "39115 Hand Canyon",
    "sqft": 53554,
    "openDate": "2021-05-14",
    "manager": "Olga Gulgowski IV",
    "status": "active",
    "lat": -60.5604,
    "lng": 74.7434
  },
  {
    "id": "ST0279",
    "name": "HyperRetail Houston Plaza",
    "region": "West",
    "city": "San Diego",
    "address": "88761 Nolan Burgs",
    "sqft": 128463,
    "openDate": "2020-10-31",
    "manager": "Noel Gleason",
    "status": "active",
    "lat": 5.1673,
    "lng": -89.3496
  },
  {
    "id": "ST0280",
    "name": "HyperRetail New York Market",
    "region": "West",
    "city": "New York",
    "address": "84422 Gleason Cove",
    "sqft": 76161,
    "openDate": "2018-11-30",
    "manager": "Roosevelt Cruickshank",
    "status": "active",
    "lat": 15.3063,
    "lng": -127.6145
  },
  {
    "id": "ST0281",
    "name": "HyperRetail Phoenix Market",
    "region": "East",
    "city": "Philadelphia",
    "address": "521 Rectory Lane",
    "sqft": 76637,
    "openDate": "2017-02-25",
    "manager": "Nadine Murazik",
    "status": "active",
    "lat": -33.1662,
    "lng": -139.5371
  },
  {
    "id": "ST0282",
    "name": "HyperRetail San Antonio Plaza",
    "region": "South",
    "city": "Chicago",
    "address": "2821 Howe Views",
    "sqft": 126749,
    "openDate": "2019-09-23",
    "manager": "Gustavo Quitzon",
    "status": "active",
    "lat": 12.991,
    "lng": 84.9314
  },
  {
    "id": "ST0283",
    "name": "HyperRetail San Jose Mall",
    "region": "Central",
    "city": "San Antonio",
    "address": "44942 Elm Close",
    "sqft": 98376,
    "openDate": "2016-07-11",
    "manager": "Paul Predovic-Blanda",
    "status": "active",
    "lat": 60.5482,
    "lng": -33.1575
  },
  {
    "id": "ST0284",
    "name": "HyperRetail San Jose Mall",
    "region": "Central",
    "city": "New York",
    "address": "18668 Larkin Courts",
    "sqft": 90095,
    "openDate": "2019-05-01",
    "manager": "Ebony Veum",
    "status": "active",
    "lat": 15.9058,
    "lng": -165.6188
  },
  {
    "id": "ST0285",
    "name": "HyperRetail Chicago Mall",
    "region": "North",
    "city": "Dallas",
    "address": "75480 Low Road",
    "sqft": 80271,
    "openDate": "2021-02-20",
    "manager": "Percy Nitzsche",
    "status": "active",
    "lat": -18.3671,
    "lng": 9.1146
  },
  {
    "id": "ST0286",
    "name": "HyperRetail San Jose Plaza",
    "region": "South",
    "city": "San Jose",
    "address": "494 Hermiston Square",
    "sqft": 108727,
    "openDate": "2018-05-03",
    "manager": "Jean Hackett",
    "status": "active",
    "lat": -33.1797,
    "lng": -56.5014
  },
  {
    "id": "ST0287",
    "name": "HyperRetail Los Angeles Center",
    "region": "West",
    "city": "Los Angeles",
    "address": "15187 Willow Street",
    "sqft": 78375,
    "openDate": "2016-01-02",
    "manager": "Stella Strosin",
    "status": "active",
    "lat": 57.8267,
    "lng": 0.3745
  },
  {
    "id": "ST0288",
    "name": "HyperRetail Chicago Center",
    "region": "East",
    "city": "Los Angeles",
    "address": "983 Isabella Mission",
    "sqft": 107316,
    "openDate": "2023-11-26",
    "manager": "Alice Vandervort",
    "status": "active",
    "lat": -85.5029,
    "lng": 93.6126
  },
  {
    "id": "ST0289",
    "name": "HyperRetail San Diego Plaza",
    "region": "East",
    "city": "Dallas",
    "address": "4635 McCullough Cliff",
    "sqft": 108893,
    "openDate": "2018-04-07",
    "manager": "Mr. Seth Dibbert",
    "status": "active",
    "lat": -56.8353,
    "lng": -35.5867
  },
  {
    "id": "ST0290",
    "name": "HyperRetail New York Market",
    "region": "East",
    "city": "Houston",
    "address": "205 Bernhard Mountains",
    "sqft": 46371,
    "openDate": "2017-08-21",
    "manager": "Warren Heller",
    "status": "active",
    "lat": 89.0595,
    "lng": -81.2834
  },
  {
    "id": "ST0291",
    "name": "HyperRetail San Jose Plaza",
    "region": "East",
    "city": "San Diego",
    "address": "68577 S 4th Street",
    "sqft": 136105,
    "openDate": "2023-10-08",
    "manager": "Pedro Cassin",
    "status": "active",
    "lat": -34.9536,
    "lng": 63.4305
  },
  {
    "id": "ST0292",
    "name": "HyperRetail San Diego Market",
    "region": "West",
    "city": "San Jose",
    "address": "65131 Raoul Parks",
    "sqft": 95238,
    "openDate": "2022-08-09",
    "manager": "Salvatore Bernier",
    "status": "active",
    "lat": 60.2025,
    "lng": 111.3102
  },
  {
    "id": "ST0293",
    "name": "HyperRetail New York Center",
    "region": "West",
    "city": "Phoenix",
    "address": "922 Aufderhar Gardens",
    "sqft": 76159,
    "openDate": "2016-04-02",
    "manager": "Donna McClure-Ebert",
    "status": "active",
    "lat": 38.1997,
    "lng": 98.846
  },
  {
    "id": "ST0294",
    "name": "HyperRetail Los Angeles Plaza",
    "region": "South",
    "city": "San Antonio",
    "address": "1942 Buford Valleys",
    "sqft": 118667,
    "openDate": "2016-01-27",
    "manager": "Curtis Durgan",
    "status": "active",
    "lat": 26.267,
    "lng": -88.7834
  },
  {
    "id": "ST0295",
    "name": "HyperRetail Chicago Market",
    "region": "North",
    "city": "Philadelphia",
    "address": "458 Mulberry Street",
    "sqft": 60230,
    "openDate": "2016-09-18",
    "manager": "Patti Cummerata Jr.",
    "status": "active",
    "lat": 87.1076,
    "lng": -73.8658
  },
  {
    "id": "ST0296",
    "name": "HyperRetail San Jose Mall",
    "region": "North",
    "city": "Philadelphia",
    "address": "349 Dina Trafficway",
    "sqft": 136456,
    "openDate": "2023-11-11",
    "manager": "Essie DuBuque V",
    "status": "active",
    "lat": -49.8445,
    "lng": 168.5978
  },
  {
    "id": "ST0297",
    "name": "HyperRetail Philadelphia Mall",
    "region": "West",
    "city": "San Jose",
    "address": "75341 Ellie Square",
    "sqft": 32092,
    "openDate": "2022-06-21",
    "manager": "Bobbie Larkin",
    "status": "active",
    "lat": 53.2041,
    "lng": -141.4
  },
  {
    "id": "ST0298",
    "name": "HyperRetail Los Angeles Mall",
    "region": "North",
    "city": "Phoenix",
    "address": "7180 Cummerata Circles",
    "sqft": 140086,
    "openDate": "2023-06-17",
    "manager": "Bobby Casper",
    "status": "active",
    "lat": 6.7096,
    "lng": -97.4184
  },
  {
    "id": "ST0299",
    "name": "HyperRetail San Antonio Plaza",
    "region": "West",
    "city": "New York",
    "address": "1210 Jacklyn Keys",
    "sqft": 135827,
    "openDate": "2020-09-21",
    "manager": "Mr. Fred Kassulke Sr.",
    "status": "active",
    "lat": 34.52,
    "lng": -177.5374
  },
  {
    "id": "ST0300",
    "name": "HyperRetail San Antonio Mall",
    "region": "Central",
    "city": "San Antonio",
    "address": "361 Sherman Spring",
    "sqft": 55753,
    "openDate": "2024-10-03",
    "manager": "Ms. Johnnie Vandervort",
    "status": "active",
    "lat": 23.5144,
    "lng": -3.874
  },
  {
    "id": "ST0301",
    "name": "HyperRetail Phoenix Plaza",
    "region": "East",
    "city": "New York",
    "address": "67094 Water Lane",
    "sqft": 42721,
    "openDate": "2016-04-21",
    "manager": "Jeff Muller",
    "status": "active",
    "lat": -77.8888,
    "lng": 135.2467
  },
  {
    "id": "ST0302",
    "name": "HyperRetail Chicago Mall",
    "region": "Central",
    "city": "New York",
    "address": "2732 Millie Skyway",
    "sqft": 23655,
    "openDate": "2019-01-10",
    "manager": "Danielle Koch",
    "status": "active",
    "lat": 58.1407,
    "lng": 143.3328
  },
  {
    "id": "ST0303",
    "name": "HyperRetail Chicago Market",
    "region": "West",
    "city": "San Jose",
    "address": "8511 Agustin Orchard",
    "sqft": 138244,
    "openDate": "2016-09-15",
    "manager": "Dr. Julia Adams I",
    "status": "active",
    "lat": -42.2693,
    "lng": -31.0658
  },
  {
    "id": "ST0304",
    "name": "HyperRetail San Antonio Center",
    "region": "Central",
    "city": "Chicago",
    "address": "157 Princess Street",
    "sqft": 37647,
    "openDate": "2015-12-13",
    "manager": "Dean Berge-Cruickshank",
    "status": "active",
    "lat": 3.912,
    "lng": -143.9442
  },
  {
    "id": "ST0305",
    "name": "HyperRetail Chicago Mall",
    "region": "West",
    "city": "Dallas",
    "address": "42003 Wunsch Junction",
    "sqft": 101859,
    "openDate": "2020-09-07",
    "manager": "Mrs. Kristy Ullrich PhD",
    "status": "active",
    "lat": -39.3341,
    "lng": -173.3288
  },
  {
    "id": "ST0306",
    "name": "HyperRetail New York Plaza",
    "region": "North",
    "city": "San Antonio",
    "address": "75792 Haag Street",
    "sqft": 82807,
    "openDate": "2021-05-15",
    "manager": "Kristy Reynolds Sr.",
    "status": "active",
    "lat": -24.9811,
    "lng": 91.0251
  },
  {
    "id": "ST0307",
    "name": "HyperRetail San Antonio Center",
    "region": "North",
    "city": "Los Angeles",
    "address": "6529 Jaron Pike",
    "sqft": 126088,
    "openDate": "2017-03-30",
    "manager": "Audrey Hudson",
    "status": "active",
    "lat": 69.5872,
    "lng": 112.8992
  },
  {
    "id": "ST0308",
    "name": "HyperRetail Phoenix Center",
    "region": "West",
    "city": "Chicago",
    "address": "9411 Botsford Brooks",
    "sqft": 22167,
    "openDate": "2019-05-24",
    "manager": "Randall Kirlin",
    "status": "active",
    "lat": 42.4864,
    "lng": -117.8076
  },
  {
    "id": "ST0309",
    "name": "HyperRetail Houston Center",
    "region": "East",
    "city": "Dallas",
    "address": "99187 Rowan Close",
    "sqft": 72880,
    "openDate": "2022-05-24",
    "manager": "Thomas Pollich",
    "status": "maintenance",
    "lat": -86.4049,
    "lng": 47.5633
  },
  {
    "id": "ST0310",
    "name": "HyperRetail Philadelphia Mall",
    "region": "East",
    "city": "Philadelphia",
    "address": "2074 S Oak Street",
    "sqft": 38917,
    "openDate": "2021-05-27",
    "manager": "Garry Feest DDS",
    "status": "active",
    "lat": 15.9176,
    "lng": -115.9618
  },
  {
    "id": "ST0311",
    "name": "HyperRetail Chicago Mall",
    "region": "South",
    "city": "Phoenix",
    "address": "1854 Gerlach Road",
    "sqft": 132712,
    "openDate": "2025-07-14",
    "manager": "Dave Becker",
    "status": "active",
    "lat": -53.2339,
    "lng": -159.938
  },
  {
    "id": "ST0312",
    "name": "HyperRetail San Antonio Market",
    "region": "South",
    "city": "San Diego",
    "address": "544 Christiansen Mountain",
    "sqft": 57830,
    "openDate": "2016-08-31",
    "manager": "Forrest Klein",
    "status": "active",
    "lat": 16.9446,
    "lng": 31.0448
  },
  {
    "id": "ST0313",
    "name": "HyperRetail San Diego Mall",
    "region": "West",
    "city": "Los Angeles",
    "address": "52229 Grove Street",
    "sqft": 80216,
    "openDate": "2016-04-23",
    "manager": "Margie Murray",
    "status": "active",
    "lat": 71.7602,
    "lng": -133.423
  },
  {
    "id": "ST0314",
    "name": "HyperRetail Phoenix Mall",
    "region": "North",
    "city": "New York",
    "address": "644 Orland Fort",
    "sqft": 48661,
    "openDate": "2025-04-26",
    "manager": "Jackie Stehr DVM",
    "status": "active",
    "lat": 77.8684,
    "lng": -29.1875
  },
  {
    "id": "ST0315",
    "name": "HyperRetail Los Angeles Center",
    "region": "South",
    "city": "New York",
    "address": "98632 McGlynn Rapids",
    "sqft": 34232,
    "openDate": "2021-07-13",
    "manager": "Tom Windler",
    "status": "maintenance",
    "lat": -45.8182,
    "lng": -75.8029
  },
  {
    "id": "ST0316",
    "name": "HyperRetail San Diego Mall",
    "region": "West",
    "city": "San Jose",
    "address": "164 Brook Lane",
    "sqft": 30221,
    "openDate": "2020-09-26",
    "manager": "Mrs. Karen Jaskolski III",
    "status": "active",
    "lat": 41.8703,
    "lng": 178.5578
  },
  {
    "id": "ST0317",
    "name": "HyperRetail San Antonio Market",
    "region": "South",
    "city": "Dallas",
    "address": "62042 Tia Bridge",
    "sqft": 67595,
    "openDate": "2017-01-14",
    "manager": "Marta Heaney",
    "status": "active",
    "lat": -41.6058,
    "lng": -177.447
  },
  {
    "id": "ST0318",
    "name": "HyperRetail San Jose Center",
    "region": "Central",
    "city": "Dallas",
    "address": "2916 Second Avenue",
    "sqft": 100118,
    "openDate": "2025-07-06",
    "manager": "Katherine Nader",
    "status": "active",
    "lat": -23.6295,
    "lng": 44.5478
  },
  {
    "id": "ST0319",
    "name": "HyperRetail San Diego Plaza",
    "region": "Central",
    "city": "Los Angeles",
    "address": "8914 Rutherford Burgs",
    "sqft": 82904,
    "openDate": "2025-01-07",
    "manager": "Neal Pfeffer",
    "status": "active",
    "lat": 78.5688,
    "lng": -102.3805
  },
  {
    "id": "ST0320",
    "name": "HyperRetail Dallas Market",
    "region": "West",
    "city": "Chicago",
    "address": "58981 Triston Villages",
    "sqft": 43776,
    "openDate": "2025-04-30",
    "manager": "Louis Lind V",
    "status": "active",
    "lat": 26.127,
    "lng": -36.1231
  },
  {
    "id": "ST0321",
    "name": "HyperRetail New York Market",
    "region": "Central",
    "city": "Philadelphia",
    "address": "51207 Ankunding Viaduct",
    "sqft": 26436,
    "openDate": "2019-03-04",
    "manager": "Woodrow Ankunding IV",
    "status": "maintenance",
    "lat": -7.2787,
    "lng": 76.9343
  },
  {
    "id": "ST0322",
    "name": "HyperRetail Phoenix Market",
    "region": "North",
    "city": "San Antonio",
    "address": "257 Douglas Road",
    "sqft": 83088,
    "openDate": "2022-08-05",
    "manager": "Muriel Leuschke",
    "status": "active",
    "lat": 67.0311,
    "lng": -103.3073
  },
  {
    "id": "ST0323",
    "name": "HyperRetail San Antonio Center",
    "region": "North",
    "city": "New York",
    "address": "657 Kurtis Path",
    "sqft": 54610,
    "openDate": "2023-04-19",
    "manager": "Jody Schumm",
    "status": "closed",
    "lat": 78.1957,
    "lng": 0.673
  },
  {
    "id": "ST0324",
    "name": "HyperRetail Chicago Mall",
    "region": "West",
    "city": "San Diego",
    "address": "255 N Pearl Street",
    "sqft": 125952,
    "openDate": "2024-12-06",
    "manager": "Tonya Stehr",
    "status": "active",
    "lat": 83.357,
    "lng": -144.2745
  },
  {
    "id": "ST0325",
    "name": "HyperRetail San Jose Plaza",
    "region": "West",
    "city": "Chicago",
    "address": "84117 Barrett Pass",
    "sqft": 101008,
    "openDate": "2016-03-23",
    "manager": "Kerry Predovic",
    "status": "active",
    "lat": 25.0563,
    "lng": -81.301
  },
  {
    "id": "ST0326",
    "name": "HyperRetail Chicago Mall",
    "region": "West",
    "city": "San Diego",
    "address": "813 Lincoln Road",
    "sqft": 97165,
    "openDate": "2025-05-19",
    "manager": "Lucille Klein",
    "status": "active",
    "lat": 36.0626,
    "lng": -16.8237
  },
  {
    "id": "ST0327",
    "name": "HyperRetail San Diego Market",
    "region": "North",
    "city": "Philadelphia",
    "address": "1819 Langworth Harbors",
    "sqft": 143537,
    "openDate": "2022-03-29",
    "manager": "Dr. Ken McDermott",
    "status": "active",
    "lat": -28.626,
    "lng": -10.1151
  },
  {
    "id": "ST0328",
    "name": "HyperRetail Dallas Mall",
    "region": "South",
    "city": "Dallas",
    "address": "85453 Mount Street",
    "sqft": 114388,
    "openDate": "2020-02-07",
    "manager": "Jeff Schimmel",
    "status": "active",
    "lat": 4.9972,
    "lng": -59.7436
  },
  {
    "id": "ST0329",
    "name": "HyperRetail Philadelphia Plaza",
    "region": "Central",
    "city": "Chicago",
    "address": "913 Cleveland Street",
    "sqft": 42170,
    "openDate": "2021-03-22",
    "manager": "Michele Barton",
    "status": "active",
    "lat": 67.9158,
    "lng": 15.8791
  },
  {
    "id": "ST0330",
    "name": "HyperRetail Chicago Center",
    "region": "North",
    "city": "Houston",
    "address": "56933 Destany Dam",
    "sqft": 51650,
    "openDate": "2020-11-08",
    "manager": "Hazel Renner",
    "status": "active",
    "lat": 37.6733,
    "lng": 59.0519
  },
  {
    "id": "ST0331",
    "name": "HyperRetail New York Plaza",
    "region": "East",
    "city": "Phoenix",
    "address": "337 West Estate",
    "sqft": 139220,
    "openDate": "2018-05-30",
    "manager": "Mr. Timothy Stehr",
    "status": "active",
    "lat": 67.3917,
    "lng": -113.917
  },
  {
    "id": "ST0332",
    "name": "HyperRetail Houston Market",
    "region": "West",
    "city": "Phoenix",
    "address": "29212 Josiane Locks",
    "sqft": 50468,
    "openDate": "2025-01-03",
    "manager": "Lillian Welch",
    "status": "closed",
    "lat": 42.2567,
    "lng": -44.5467
  },
  {
    "id": "ST0333",
    "name": "HyperRetail Houston Market",
    "region": "North",
    "city": "Philadelphia",
    "address": "39746 Yundt Burgs",
    "sqft": 54456,
    "openDate": "2018-07-18",
    "manager": "Ken Douglas",
    "status": "active",
    "lat": -89.2947,
    "lng": -41.9804
  },
  {
    "id": "ST0334",
    "name": "HyperRetail San Jose Market",
    "region": "Central",
    "city": "Dallas",
    "address": "657 Bette Crescent",
    "sqft": 96456,
    "openDate": "2022-12-25",
    "manager": "Glen Roob IV",
    "status": "active",
    "lat": -76.053,
    "lng": -67.1482
  },
  {
    "id": "ST0335",
    "name": "HyperRetail New York Center",
    "region": "North",
    "city": "San Antonio",
    "address": "7916 The Drive",
    "sqft": 89270,
    "openDate": "2021-03-01",
    "manager": "Ana Brekke-Robel Sr.",
    "status": "active",
    "lat": 46.1771,
    "lng": -119.4775
  },
  {
    "id": "ST0336",
    "name": "HyperRetail New York Center",
    "region": "North",
    "city": "Phoenix",
    "address": "6991 Pacocha Mill",
    "sqft": 42541,
    "openDate": "2025-04-28",
    "manager": "Scott Dibbert",
    "status": "active",
    "lat": -53.4829,
    "lng": 87.6071
  },
  {
    "id": "ST0337",
    "name": "HyperRetail San Diego Center",
    "region": "Central",
    "city": "Los Angeles",
    "address": "8419 Afton Fields",
    "sqft": 114890,
    "openDate": "2022-02-08",
    "manager": "Bradley Kuhn",
    "status": "active",
    "lat": -53.1505,
    "lng": 175.1651
  },
  {
    "id": "ST0338",
    "name": "HyperRetail Philadelphia Plaza",
    "region": "West",
    "city": "Los Angeles",
    "address": "14620 Smith Crossing",
    "sqft": 86552,
    "openDate": "2016-12-22",
    "manager": "David Tillman",
    "status": "active",
    "lat": -54.4158,
    "lng": -60.6032
  },
  {
    "id": "ST0339",
    "name": "HyperRetail Houston Center",
    "region": "East",
    "city": "Philadelphia",
    "address": "51193 Dayne Springs",
    "sqft": 22040,
    "openDate": "2017-12-13",
    "manager": "Valerie Collins",
    "status": "active",
    "lat": -73.347,
    "lng": 71.0754
  },
  {
    "id": "ST0340",
    "name": "HyperRetail Los Angeles Center",
    "region": "North",
    "city": "San Diego",
    "address": "906 Crist Coves",
    "sqft": 51647,
    "openDate": "2016-08-16",
    "manager": "Carl Wilkinson",
    "status": "active",
    "lat": 36.5904,
    "lng": -179.5435
  },
  {
    "id": "ST0341",
    "name": "HyperRetail Phoenix Market",
    "region": "Central",
    "city": "Philadelphia",
    "address": "3079 E North Street",
    "sqft": 82880,
    "openDate": "2022-06-16",
    "manager": "Carla Bechtelar",
    "status": "active",
    "lat": 69.9755,
    "lng": -135.6054
  },
  {
    "id": "ST0342",
    "name": "HyperRetail San Antonio Mall",
    "region": "South",
    "city": "Houston",
    "address": "718 Candida Manors",
    "sqft": 67652,
    "openDate": "2020-03-04",
    "manager": "Ms. Susan Sauer",
    "status": "active",
    "lat": -16.8447,
    "lng": -111.4626
  },
  {
    "id": "ST0343",
    "name": "HyperRetail Dallas Mall",
    "region": "South",
    "city": "Los Angeles",
    "address": "61199 Osborne Harbor",
    "sqft": 70731,
    "openDate": "2020-10-18",
    "manager": "Julio Abernathy",
    "status": "active",
    "lat": -58.5903,
    "lng": -41.8419
  },
  {
    "id": "ST0344",
    "name": "HyperRetail Houston Market",
    "region": "Central",
    "city": "Los Angeles",
    "address": "4648 Trantow Plaza",
    "sqft": 139573,
    "openDate": "2023-09-03",
    "manager": "Carmen Rempel",
    "status": "active",
    "lat": 46.2469,
    "lng": -30.544
  },
  {
    "id": "ST0345",
    "name": "HyperRetail San Antonio Plaza",
    "region": "North",
    "city": "Los Angeles",
    "address": "170 Kaylin Landing",
    "sqft": 135944,
    "openDate": "2024-02-02",
    "manager": "Erica Auer",
    "status": "active",
    "lat": -20.0464,
    "lng": 17.9557
  },
  {
    "id": "ST0346",
    "name": "HyperRetail New York Center",
    "region": "Central",
    "city": "San Antonio",
    "address": "892 Cedar Road",
    "sqft": 81489,
    "openDate": "2017-04-26",
    "manager": "Howard Wolf",
    "status": "active",
    "lat": 72.5451,
    "lng": 0.3156
  },
  {
    "id": "ST0347",
    "name": "HyperRetail New York Market",
    "region": "Central",
    "city": "New York",
    "address": "3869 Osinski Viaduct",
    "sqft": 106375,
    "openDate": "2025-03-03",
    "manager": "Carole McLaughlin MD",
    "status": "active",
    "lat": -43.9801,
    "lng": 43.8972
  },
  {
    "id": "ST0348",
    "name": "HyperRetail Houston Center",
    "region": "Central",
    "city": "Dallas",
    "address": "58855 Barton Road",
    "sqft": 112769,
    "openDate": "2021-12-27",
    "manager": "Mrs. Melinda Connelly",
    "status": "active",
    "lat": 6.3837,
    "lng": 167.9727
  },
  {
    "id": "ST0349",
    "name": "HyperRetail New York Mall",
    "region": "South",
    "city": "Los Angeles",
    "address": "499 Grange Avenue",
    "sqft": 149042,
    "openDate": "2017-02-24",
    "manager": "Tomas Heller",
    "status": "active",
    "lat": 36.3882,
    "lng": 80.8409
  },
  {
    "id": "ST0350",
    "name": "HyperRetail Houston Mall",
    "region": "North",
    "city": "San Diego",
    "address": "404 Sanford Crossing",
    "sqft": 69707,
    "openDate": "2020-03-04",
    "manager": "Mattie Ankunding",
    "status": "active",
    "lat": 4.6704,
    "lng": 36.3928
  },
  {
    "id": "ST0351",
    "name": "HyperRetail Dallas Market",
    "region": "South",
    "city": "Dallas",
    "address": "5672 Drake Greens",
    "sqft": 141344,
    "openDate": "2023-11-19",
    "manager": "Daryl Haley",
    "status": "active",
    "lat": -84.7261,
    "lng": 66.6022
  },
  {
    "id": "ST0352",
    "name": "HyperRetail San Antonio Center",
    "region": "East",
    "city": "Houston",
    "address": "1340 Dickinson Point",
    "sqft": 143597,
    "openDate": "2022-09-03",
    "manager": "Kristine Swaniawski",
    "status": "active",
    "lat": -83.2381,
    "lng": 172.4111
  },
  {
    "id": "ST0353",
    "name": "HyperRetail San Diego Mall",
    "region": "East",
    "city": "Chicago",
    "address": "4207 Cathrine Isle",
    "sqft": 44691,
    "openDate": "2018-03-17",
    "manager": "Gwen O'Reilly",
    "status": "active",
    "lat": 26.1428,
    "lng": 61.9271
  },
  {
    "id": "ST0354",
    "name": "HyperRetail San Antonio Center",
    "region": "Central",
    "city": "Dallas",
    "address": "8082 Wuckert Ramp",
    "sqft": 97514,
    "openDate": "2023-02-23",
    "manager": "Edmond Daniel",
    "status": "active",
    "lat": -83.2449,
    "lng": -126.4289
  },
  {
    "id": "ST0355",
    "name": "HyperRetail Philadelphia Market",
    "region": "Central",
    "city": "Phoenix",
    "address": "559 VonRueden Village",
    "sqft": 60455,
    "openDate": "2019-02-04",
    "manager": "Anna Konopelski I",
    "status": "active",
    "lat": -5.4352,
    "lng": 46.5926
  },
  {
    "id": "ST0356",
    "name": "HyperRetail Phoenix Mall",
    "region": "East",
    "city": "Dallas",
    "address": "6155 Richmond Valley",
    "sqft": 106322,
    "openDate": "2019-09-04",
    "manager": "Annie Moen MD",
    "status": "active",
    "lat": 4.6387,
    "lng": -165.8097
  },
  {
    "id": "ST0357",
    "name": "HyperRetail San Diego Center",
    "region": "East",
    "city": "Dallas",
    "address": "908 Layne Curve",
    "sqft": 88907,
    "openDate": "2018-12-06",
    "manager": "Rosie Toy",
    "status": "active",
    "lat": 23.1307,
    "lng": 3.008
  },
  {
    "id": "ST0358",
    "name": "HyperRetail Philadelphia Market",
    "region": "West",
    "city": "Chicago",
    "address": "85406 Reinger Route",
    "sqft": 102388,
    "openDate": "2018-11-24",
    "manager": "Tabitha Gottlieb",
    "status": "active",
    "lat": 62.8279,
    "lng": -61.3691
  },
  {
    "id": "ST0359",
    "name": "HyperRetail Phoenix Mall",
    "region": "Central",
    "city": "Dallas",
    "address": "7587 Kristy Track",
    "sqft": 144829,
    "openDate": "2025-03-25",
    "manager": "Stewart Harber",
    "status": "active",
    "lat": -15.5281,
    "lng": 4.3519
  },
  {
    "id": "ST0360",
    "name": "HyperRetail Chicago Market",
    "region": "West",
    "city": "New York",
    "address": "42813 Clyde Garden",
    "sqft": 75223,
    "openDate": "2016-12-21",
    "manager": "Krista Rice",
    "status": "active",
    "lat": 0.9208,
    "lng": -83.0096
  },
  {
    "id": "ST0361",
    "name": "HyperRetail San Jose Market",
    "region": "East",
    "city": "Los Angeles",
    "address": "42541 Moriah Village",
    "sqft": 70342,
    "openDate": "2018-03-01",
    "manager": "Don McLaughlin",
    "status": "active",
    "lat": 42.2571,
    "lng": 158.8605
  },
  {
    "id": "ST0362",
    "name": "HyperRetail Chicago Market",
    "region": "East",
    "city": "Philadelphia",
    "address": "76565 Buckridge Ville",
    "sqft": 36398,
    "openDate": "2017-02-02",
    "manager": "Johnathan Ratke",
    "status": "active",
    "lat": 40.1111,
    "lng": 56.4535
  },
  {
    "id": "ST0363",
    "name": "HyperRetail New York Plaza",
    "region": "East",
    "city": "Los Angeles",
    "address": "9964 Bergnaum Fork",
    "sqft": 91719,
    "openDate": "2019-10-16",
    "manager": "Matthew Botsford-Keeling",
    "status": "active",
    "lat": -0.1494,
    "lng": 146.3952
  },
  {
    "id": "ST0364",
    "name": "HyperRetail San Antonio Plaza",
    "region": "North",
    "city": "San Antonio",
    "address": "420 Heath Road",
    "sqft": 147647,
    "openDate": "2023-03-06",
    "manager": "Horace White I",
    "status": "active",
    "lat": 56.0639,
    "lng": 72.837
  },
  {
    "id": "ST0365",
    "name": "HyperRetail New York Market",
    "region": "East",
    "city": "Houston",
    "address": "39977 Erdman Squares",
    "sqft": 78381,
    "openDate": "2019-05-10",
    "manager": "Abel Ratke",
    "status": "maintenance",
    "lat": 45.6783,
    "lng": 6.1675
  },
  {
    "id": "ST0366",
    "name": "HyperRetail San Antonio Plaza",
    "region": "East",
    "city": "Philadelphia",
    "address": "275 Kub Harbors",
    "sqft": 100935,
    "openDate": "2021-10-08",
    "manager": "Johanna Bruen",
    "status": "active",
    "lat": 81.0907,
    "lng": -2.7354
  },
  {
    "id": "ST0367",
    "name": "HyperRetail Houston Market",
    "region": "East",
    "city": "Los Angeles",
    "address": "360 Meggie Isle",
    "sqft": 50967,
    "openDate": "2023-08-26",
    "manager": "Faith Christiansen III",
    "status": "active",
    "lat": -85.349,
    "lng": -127.719
  },
  {
    "id": "ST0368",
    "name": "HyperRetail Chicago Center",
    "region": "West",
    "city": "San Jose",
    "address": "60948 Alfred Circles",
    "sqft": 105592,
    "openDate": "2017-10-03",
    "manager": "Leticia Volkman",
    "status": "active",
    "lat": -27.2033,
    "lng": 65.9432
  },
  {
    "id": "ST0369",
    "name": "HyperRetail San Jose Plaza",
    "region": "South",
    "city": "San Diego",
    "address": "807 Johan Summit",
    "sqft": 50277,
    "openDate": "2019-07-11",
    "manager": "Dominic Ebert IV",
    "status": "active",
    "lat": 42.6995,
    "lng": -98.7608
  },
  {
    "id": "ST0370",
    "name": "HyperRetail San Antonio Plaza",
    "region": "East",
    "city": "San Diego",
    "address": "260 York Road",
    "sqft": 114870,
    "openDate": "2025-07-30",
    "manager": "Gustavo Hickle",
    "status": "active",
    "lat": 64.5065,
    "lng": 19.6634
  },
  {
    "id": "ST0371",
    "name": "HyperRetail Chicago Market",
    "region": "North",
    "city": "San Jose",
    "address": "12092 S 1st Avenue",
    "sqft": 84959,
    "openDate": "2016-12-13",
    "manager": "Joy Mohr",
    "status": "active",
    "lat": 84.6999,
    "lng": 109.7881
  },
  {
    "id": "ST0372",
    "name": "HyperRetail Philadelphia Market",
    "region": "South",
    "city": "Chicago",
    "address": "5906 Osinski Loop",
    "sqft": 51288,
    "openDate": "2024-05-20",
    "manager": "Mitchell Harvey",
    "status": "active",
    "lat": -2.9315,
    "lng": 30.8356
  },
  {
    "id": "ST0373",
    "name": "HyperRetail Chicago Plaza",
    "region": "South",
    "city": "San Diego",
    "address": "72350 Nicola Forges",
    "sqft": 144173,
    "openDate": "2017-01-07",
    "manager": "Sherri Mohr",
    "status": "active",
    "lat": 13.8485,
    "lng": 63.53
  },
  {
    "id": "ST0374",
    "name": "HyperRetail Los Angeles Plaza",
    "region": "South",
    "city": "Dallas",
    "address": "256 Heaney Junction",
    "sqft": 117177,
    "openDate": "2020-03-17",
    "manager": "Robert Block",
    "status": "active",
    "lat": 24.6279,
    "lng": -151.9636
  },
  {
    "id": "ST0375",
    "name": "HyperRetail San Jose Center",
    "region": "Central",
    "city": "San Jose",
    "address": "33395 Tillman Plaza",
    "sqft": 142448,
    "openDate": "2016-09-15",
    "manager": "Josh Kuvalis",
    "status": "active",
    "lat": -16.1453,
    "lng": -57.7107
  },
  {
    "id": "ST0376",
    "name": "HyperRetail Phoenix Center",
    "region": "North",
    "city": "Chicago",
    "address": "37341 Maudie Hill",
    "sqft": 100111,
    "openDate": "2017-04-15",
    "manager": "Gayle Goldner Sr.",
    "status": "active",
    "lat": -44.6403,
    "lng": 96.8788
  },
  {
    "id": "ST0377",
    "name": "HyperRetail San Jose Market",
    "region": "East",
    "city": "Phoenix",
    "address": "5593 Raegan Manors",
    "sqft": 88027,
    "openDate": "2021-01-30",
    "manager": "Charlotte Schuppe",
    "status": "active",
    "lat": 78.5827,
    "lng": 101.4958
  },
  {
    "id": "ST0378",
    "name": "HyperRetail Houston Plaza",
    "region": "Central",
    "city": "New York",
    "address": "620 Margarette Club",
    "sqft": 88955,
    "openDate": "2018-07-19",
    "manager": "Antonio Hilpert",
    "status": "active",
    "lat": -53.8421,
    "lng": 81.1686
  },
  {
    "id": "ST0379",
    "name": "HyperRetail Houston Plaza",
    "region": "East",
    "city": "Phoenix",
    "address": "5757 Willow Street",
    "sqft": 42318,
    "openDate": "2022-12-20",
    "manager": "Raymond Hegmann",
    "status": "active",
    "lat": 35.915,
    "lng": -22.2798
  },
  {
    "id": "ST0380",
    "name": "HyperRetail Phoenix Market",
    "region": "North",
    "city": "Philadelphia",
    "address": "9596 Eugene Land",
    "sqft": 137893,
    "openDate": "2019-09-25",
    "manager": "Bradley Jaskolski",
    "status": "active",
    "lat": 46.1441,
    "lng": -98.3757
  },
  {
    "id": "ST0381",
    "name": "HyperRetail San Diego Center",
    "region": "East",
    "city": "San Antonio",
    "address": "124 Gislason Underpass",
    "sqft": 114170,
    "openDate": "2016-11-13",
    "manager": "Candace Stokes",
    "status": "active",
    "lat": -54.3595,
    "lng": 131.3982
  },
  {
    "id": "ST0382",
    "name": "HyperRetail Phoenix Mall",
    "region": "East",
    "city": "Los Angeles",
    "address": "3545 Cameron Gateway",
    "sqft": 28525,
    "openDate": "2024-06-23",
    "manager": "Clifford Marquardt",
    "status": "active",
    "lat": 55.5044,
    "lng": -55.1813
  },
  {
    "id": "ST0383",
    "name": "HyperRetail Houston Center",
    "region": "West",
    "city": "Dallas",
    "address": "70397 Corwin Skyway",
    "sqft": 36941,
    "openDate": "2023-01-14",
    "manager": "Joanna Swift",
    "status": "active",
    "lat": -78.6144,
    "lng": 119.0289
  },
  {
    "id": "ST0384",
    "name": "HyperRetail Los Angeles Center",
    "region": "Central",
    "city": "San Antonio",
    "address": "5285 Juliet Flats",
    "sqft": 105207,
    "openDate": "2017-01-27",
    "manager": "Vicky Auer",
    "status": "active",
    "lat": 34.9437,
    "lng": 10.6462
  },
  {
    "id": "ST0385",
    "name": "HyperRetail New York Mall",
    "region": "South",
    "city": "Chicago",
    "address": "7520 The Avenue",
    "sqft": 124395,
    "openDate": "2023-08-26",
    "manager": "Sonya Schmitt",
    "status": "active",
    "lat": -3.1876,
    "lng": 86.718
  },
  {
    "id": "ST0386",
    "name": "HyperRetail San Diego Center",
    "region": "South",
    "city": "Houston",
    "address": "8323 Bailey Roads",
    "sqft": 20508,
    "openDate": "2022-01-15",
    "manager": "Dr. Alicia Koelpin",
    "status": "active",
    "lat": 77.386,
    "lng": -83.8205
  },
  {
    "id": "ST0387",
    "name": "HyperRetail Philadelphia Plaza",
    "region": "West",
    "city": "Chicago",
    "address": "404 Icie Rapid",
    "sqft": 48375,
    "openDate": "2017-08-05",
    "manager": "Janis Johns",
    "status": "active",
    "lat": 36.9642,
    "lng": -22.3987
  },
  {
    "id": "ST0388",
    "name": "HyperRetail Chicago Plaza",
    "region": "East",
    "city": "Chicago",
    "address": "7808 Smith Street",
    "sqft": 75597,
    "openDate": "2025-06-22",
    "manager": "Kirk Schaefer",
    "status": "active",
    "lat": -73.8539,
    "lng": 17.8865
  },
  {
    "id": "ST0389",
    "name": "HyperRetail San Jose Market",
    "region": "Central",
    "city": "Phoenix",
    "address": "1209 Heathcote Crest",
    "sqft": 40928,
    "openDate": "2019-03-09",
    "manager": "Malcolm Daugherty",
    "status": "active",
    "lat": -47.1376,
    "lng": -20.9132
  },
  {
    "id": "ST0390",
    "name": "HyperRetail San Jose Plaza",
    "region": "North",
    "city": "San Diego",
    "address": "85688 Rippin Well",
    "sqft": 134687,
    "openDate": "2019-01-15",
    "manager": "Ms. Martha Zemlak MD",
    "status": "active",
    "lat": -69.447,
    "lng": 20.8365
  },
  {
    "id": "ST0391",
    "name": "HyperRetail Philadelphia Mall",
    "region": "East",
    "city": "New York",
    "address": "19418 Kianna Valley",
    "sqft": 149897,
    "openDate": "2021-03-06",
    "manager": "Amy Metz",
    "status": "active",
    "lat": -60.4686,
    "lng": -156.7798
  },
  {
    "id": "ST0392",
    "name": "HyperRetail Chicago Market",
    "region": "West",
    "city": "Philadelphia",
    "address": "695 Leonor Trafficway",
    "sqft": 54359,
    "openDate": "2022-07-19",
    "manager": "Miss Evelyn Strosin",
    "status": "active",
    "lat": -60.3485,
    "lng": 37.2255
  },
  {
    "id": "ST0393",
    "name": "HyperRetail Phoenix Market",
    "region": "South",
    "city": "Los Angeles",
    "address": "143 Old Military Road",
    "sqft": 27116,
    "openDate": "2024-06-11",
    "manager": "Kristin Lueilwitz",
    "status": "active",
    "lat": -33.1316,
    "lng": -81.2118
  },
  {
    "id": "ST0394",
    "name": "HyperRetail San Diego Mall",
    "region": "Central",
    "city": "San Diego",
    "address": "988 New Road",
    "sqft": 91571,
    "openDate": "2021-09-22",
    "manager": "Floyd Cassin",
    "status": "active",
    "lat": -32.9557,
    "lng": 67.8088
  },
  {
    "id": "ST0395",
    "name": "HyperRetail Phoenix Mall",
    "region": "South",
    "city": "Chicago",
    "address": "931 Caleb Meadow",
    "sqft": 32829,
    "openDate": "2025-04-03",
    "manager": "Justin Erdman",
    "status": "active",
    "lat": 6.3744,
    "lng": -24.0297
  },
  {
    "id": "ST0396",
    "name": "HyperRetail San Diego Market",
    "region": "Central",
    "city": "San Diego",
    "address": "483 Halvorson Dam",
    "sqft": 120620,
    "openDate": "2024-10-30",
    "manager": "Dr. Cynthia Orn",
    "status": "active",
    "lat": 1.5631,
    "lng": -132.8828
  },
  {
    "id": "ST0397",
    "name": "HyperRetail New York Plaza",
    "region": "East",
    "city": "San Jose",
    "address": "857 Mill Street",
    "sqft": 124020,
    "openDate": "2020-08-17",
    "manager": "Courtney Wintheiser",
    "status": "active",
    "lat": -47.8615,
    "lng": 111.9977
  },
  {
    "id": "ST0398",
    "name": "HyperRetail New York Plaza",
    "region": "East",
    "city": "Chicago",
    "address": "79429 Bramble Close",
    "sqft": 70391,
    "openDate": "2020-09-18",
    "manager": "Elvira Turner",
    "status": "active",
    "lat": -19.7482,
    "lng": -48.0104
  },
  {
    "id": "ST0399",
    "name": "HyperRetail Los Angeles Center",
    "region": "West",
    "city": "Los Angeles",
    "address": "95951 Cedar Road",
    "sqft": 116882,
    "openDate": "2024-12-21",
    "manager": "Mr. Ramiro Dickinson",
    "status": "active",
    "lat": -9.2068,
    "lng": 2.7033
  },
  {
    "id": "ST0400",
    "name": "HyperRetail Philadelphia Mall",
    "region": "North",
    "city": "Dallas",
    "address": "49396 Park Drive",
    "sqft": 22522,
    "openDate": "2024-10-02",
    "manager": "Irma Rice",
    "status": "closed",
    "lat": 73.7256,
    "lng": 46.4929
  },
  {
    "id": "ST0401",
    "name": "HyperRetail San Antonio Mall",
    "region": "North",
    "city": "Chicago",
    "address": "898 Darrell Meadows",
    "sqft": 46082,
    "openDate": "2022-10-17",
    "manager": "Charlie Daugherty",
    "status": "active",
    "lat": -62.5878,
    "lng": 164.8726
  },
  {
    "id": "ST0402",
    "name": "HyperRetail Chicago Center",
    "region": "East",
    "city": "New York",
    "address": "633 Russel Forges",
    "sqft": 76508,
    "openDate": "2021-01-17",
    "manager": "Miss Lois Kuhic",
    "status": "active",
    "lat": -84.6378,
    "lng": 96.204
  },
  {
    "id": "ST0403",
    "name": "HyperRetail New York Plaza",
    "region": "North",
    "city": "Houston",
    "address": "5890 Washington Boulevard",
    "sqft": 46893,
    "openDate": "2024-10-06",
    "manager": "Mona Kub",
    "status": "active",
    "lat": -7.0951,
    "lng": 3.8459
  },
  {
    "id": "ST0404",
    "name": "HyperRetail San Jose Mall",
    "region": "Central",
    "city": "Dallas",
    "address": "7448 Rae Corners",
    "sqft": 20475,
    "openDate": "2017-10-25",
    "manager": "Jennie Kshlerin",
    "status": "active",
    "lat": -54.0771,
    "lng": 129.183
  },
  {
    "id": "ST0405",
    "name": "HyperRetail New York Center",
    "region": "West",
    "city": "San Diego",
    "address": "70322 The Drive",
    "sqft": 130694,
    "openDate": "2022-01-21",
    "manager": "Kerry Bernhard Jr.",
    "status": "active",
    "lat": 76.8608,
    "lng": -102.4707
  },
  {
    "id": "ST0406",
    "name": "HyperRetail San Antonio Mall",
    "region": "South",
    "city": "Los Angeles",
    "address": "469 Morissette Club",
    "sqft": 73553,
    "openDate": "2017-09-16",
    "manager": "Dewey D'Amore",
    "status": "active",
    "lat": 11.86,
    "lng": 136.0251
  },
  {
    "id": "ST0407",
    "name": "HyperRetail San Antonio Center",
    "region": "North",
    "city": "San Antonio",
    "address": "4626 Prospect Road",
    "sqft": 132044,
    "openDate": "2022-08-16",
    "manager": "Carl Keebler",
    "status": "active",
    "lat": -80.3775,
    "lng": 161.1446
  },
  {
    "id": "ST0408",
    "name": "HyperRetail Phoenix Mall",
    "region": "North",
    "city": "Houston",
    "address": "7347 Elmira Spurs",
    "sqft": 97088,
    "openDate": "2017-02-28",
    "manager": "Neal Beahan",
    "status": "active",
    "lat": -37.7337,
    "lng": 94.7862
  },
  {
    "id": "ST0409",
    "name": "HyperRetail Dallas Plaza",
    "region": "North",
    "city": "Chicago",
    "address": "890 South Street",
    "sqft": 51583,
    "openDate": "2021-02-02",
    "manager": "Arnold Adams",
    "status": "active",
    "lat": 69.7576,
    "lng": -50.4631
  },
  {
    "id": "ST0410",
    "name": "HyperRetail San Antonio Center",
    "region": "East",
    "city": "San Antonio",
    "address": "73955 Gregg Walk",
    "sqft": 143982,
    "openDate": "2016-07-02",
    "manager": "Wilfred Jones",
    "status": "active",
    "lat": 61.6598,
    "lng": 145.0186
  },
  {
    "id": "ST0411",
    "name": "HyperRetail Houston Market",
    "region": "West",
    "city": "Phoenix",
    "address": "2106 Beier Pines",
    "sqft": 73734,
    "openDate": "2017-05-02",
    "manager": "Micheal Cummings",
    "status": "active",
    "lat": 59.0265,
    "lng": -52.713
  },
  {
    "id": "ST0412",
    "name": "HyperRetail San Diego Plaza",
    "region": "North",
    "city": "San Antonio",
    "address": "55793 Green Close",
    "sqft": 129530,
    "openDate": "2021-02-07",
    "manager": "Leigh Bauch",
    "status": "active",
    "lat": -61.6731,
    "lng": -47.1645
  },
  {
    "id": "ST0413",
    "name": "HyperRetail New York Market",
    "region": "Central",
    "city": "Dallas",
    "address": "42601 W Division Street",
    "sqft": 95366,
    "openDate": "2021-10-13",
    "manager": "Karl Purdy",
    "status": "active",
    "lat": 21.8713,
    "lng": -94.9166
  },
  {
    "id": "ST0414",
    "name": "HyperRetail New York Center",
    "region": "North",
    "city": "Houston",
    "address": "476 Howell Highway",
    "sqft": 64994,
    "openDate": "2020-06-29",
    "manager": "James Flatley",
    "status": "active",
    "lat": -45.2295,
    "lng": -89.8262
  },
  {
    "id": "ST0415",
    "name": "HyperRetail New York Market",
    "region": "North",
    "city": "Chicago",
    "address": "2750 Adams Street",
    "sqft": 51375,
    "openDate": "2016-10-21",
    "manager": "Pamela Trantow",
    "status": "active",
    "lat": 9.1243,
    "lng": 86.4064
  },
  {
    "id": "ST0416",
    "name": "HyperRetail Dallas Mall",
    "region": "Central",
    "city": "Dallas",
    "address": "764 Blick Burgs",
    "sqft": 115251,
    "openDate": "2015-12-28",
    "manager": "Sam Cremin",
    "status": "active",
    "lat": 55.5828,
    "lng": -77.6562
  },
  {
    "id": "ST0417",
    "name": "HyperRetail Chicago Center",
    "region": "West",
    "city": "Philadelphia",
    "address": "5889 Zetta Lake",
    "sqft": 39979,
    "openDate": "2020-06-14",
    "manager": "Orlando Sawayn",
    "status": "active",
    "lat": 1.0391,
    "lng": 52.5769
  },
  {
    "id": "ST0418",
    "name": "HyperRetail New York Plaza",
    "region": "Central",
    "city": "San Jose",
    "address": "46770 Derby Road",
    "sqft": 37614,
    "openDate": "2020-12-16",
    "manager": "Meghan Legros",
    "status": "maintenance",
    "lat": -5.8052,
    "lng": -5.8331
  },
  {
    "id": "ST0419",
    "name": "HyperRetail Chicago Mall",
    "region": "East",
    "city": "Los Angeles",
    "address": "842 Tromp Island",
    "sqft": 138408,
    "openDate": "2021-03-24",
    "manager": "Charles Graham",
    "status": "active",
    "lat": 50.1329,
    "lng": 48.1669
  },
  {
    "id": "ST0420",
    "name": "HyperRetail Los Angeles Mall",
    "region": "West",
    "city": "Houston",
    "address": "44219 Jovany Haven",
    "sqft": 21743,
    "openDate": "2021-07-03",
    "manager": "Sabrina Blanda-Ernser",
    "status": "active",
    "lat": -57.1275,
    "lng": -159.0209
  },
  {
    "id": "ST0421",
    "name": "HyperRetail Philadelphia Market",
    "region": "West",
    "city": "Dallas",
    "address": "6703 Nova Islands",
    "sqft": 76260,
    "openDate": "2021-03-24",
    "manager": "Valerie Bartoletti",
    "status": "active",
    "lat": 27.719,
    "lng": 8.6957
  },
  {
    "id": "ST0422",
    "name": "HyperRetail San Antonio Mall",
    "region": "South",
    "city": "New York",
    "address": "90497 Maple Drive",
    "sqft": 36523,
    "openDate": "2025-05-24",
    "manager": "Dr. Gail Hammes",
    "status": "active",
    "lat": 27.7614,
    "lng": -94.8121
  },
  {
    "id": "ST0423",
    "name": "HyperRetail Chicago Market",
    "region": "Central",
    "city": "New York",
    "address": "29996 Devonte Garden",
    "sqft": 28708,
    "openDate": "2020-12-20",
    "manager": "Genevieve Legros DVM",
    "status": "active",
    "lat": 40.3181,
    "lng": 79.32
  },
  {
    "id": "ST0424",
    "name": "HyperRetail Chicago Market",
    "region": "North",
    "city": "Phoenix",
    "address": "215 W Main",
    "sqft": 60435,
    "openDate": "2017-10-15",
    "manager": "Anna Pouros",
    "status": "active",
    "lat": -69.6115,
    "lng": 146.6868
  },
  {
    "id": "ST0425",
    "name": "HyperRetail San Diego Plaza",
    "region": "East",
    "city": "Philadelphia",
    "address": "854 Jaylen Run",
    "sqft": 29159,
    "openDate": "2025-02-16",
    "manager": "Marlene D'Amore DDS",
    "status": "active",
    "lat": 74.0865,
    "lng": -14.0873
  },
  {
    "id": "ST0426",
    "name": "HyperRetail Philadelphia Center",
    "region": "East",
    "city": "Los Angeles",
    "address": "507 W 12th Street",
    "sqft": 45668,
    "openDate": "2019-07-27",
    "manager": "Dr. Ernesto Cassin",
    "status": "active",
    "lat": -66.1367,
    "lng": -10.2013
  },
  {
    "id": "ST0427",
    "name": "HyperRetail San Diego Center",
    "region": "South",
    "city": "New York",
    "address": "676 W Center Street",
    "sqft": 48477,
    "openDate": "2020-10-09",
    "manager": "Miss Debra Haag",
    "status": "active",
    "lat": -46.9334,
    "lng": 166.4516
  },
  {
    "id": "ST0428",
    "name": "HyperRetail Chicago Market",
    "region": "Central",
    "city": "Chicago",
    "address": "8553 Renner Gardens",
    "sqft": 57403,
    "openDate": "2020-01-08",
    "manager": "Dr. Pete Jenkins",
    "status": "active",
    "lat": 35.8763,
    "lng": -22.1371
  },
  {
    "id": "ST0429",
    "name": "HyperRetail San Diego Center",
    "region": "North",
    "city": "San Antonio",
    "address": "247 Doug Field",
    "sqft": 137645,
    "openDate": "2020-12-31",
    "manager": "Dr. Frankie Hodkiewicz",
    "status": "active",
    "lat": -72.5727,
    "lng": -143.6589
  },
  {
    "id": "ST0430",
    "name": "HyperRetail Phoenix Market",
    "region": "Central",
    "city": "San Antonio",
    "address": "523 Hane Falls",
    "sqft": 147589,
    "openDate": "2021-09-25",
    "manager": "Johnnie Russel",
    "status": "active",
    "lat": -3.9601,
    "lng": 152.0004
  },
  {
    "id": "ST0431",
    "name": "HyperRetail Phoenix Center",
    "region": "North",
    "city": "Houston",
    "address": "52695 Jeanne Row",
    "sqft": 85641,
    "openDate": "2018-04-04",
    "manager": "Nichole Torphy",
    "status": "active",
    "lat": -66.4057,
    "lng": -99.1586
  },
  {
    "id": "ST0432",
    "name": "HyperRetail San Diego Mall",
    "region": "Central",
    "city": "Chicago",
    "address": "736 Sean Manors",
    "sqft": 30756,
    "openDate": "2024-09-13",
    "manager": "Bradford Deckow",
    "status": "active",
    "lat": -11.0499,
    "lng": -33.6109
  },
  {
    "id": "ST0433",
    "name": "HyperRetail San Diego Mall",
    "region": "East",
    "city": "San Diego",
    "address": "591 E Union Street",
    "sqft": 29263,
    "openDate": "2020-09-26",
    "manager": "Steve Moore",
    "status": "active",
    "lat": -70.6655,
    "lng": 77.2929
  },
  {
    "id": "ST0434",
    "name": "HyperRetail Los Angeles Market",
    "region": "North",
    "city": "San Jose",
    "address": "9924 Kamryn Fort",
    "sqft": 145837,
    "openDate": "2016-11-18",
    "manager": "Shari Stokes",
    "status": "active",
    "lat": 12.5058,
    "lng": 161.0741
  },
  {
    "id": "ST0435",
    "name": "HyperRetail Houston Mall",
    "region": "East",
    "city": "New York",
    "address": "47025 Hall Street",
    "sqft": 67820,
    "openDate": "2021-02-04",
    "manager": "Sheryl Stroman",
    "status": "active",
    "lat": 45.6625,
    "lng": -23.7424
  },
  {
    "id": "ST0436",
    "name": "HyperRetail San Jose Market",
    "region": "West",
    "city": "San Jose",
    "address": "25562 Ash Close",
    "sqft": 27280,
    "openDate": "2019-02-23",
    "manager": "Freda Cruickshank",
    "status": "active",
    "lat": -31.9591,
    "lng": 127.2225
  },
  {
    "id": "ST0437",
    "name": "HyperRetail Phoenix Market",
    "region": "Central",
    "city": "Chicago",
    "address": "963 Lueilwitz Flat",
    "sqft": 26566,
    "openDate": "2016-01-05",
    "manager": "Ebony Walsh",
    "status": "active",
    "lat": -43.8674,
    "lng": -62.7194
  },
  {
    "id": "ST0438",
    "name": "HyperRetail Los Angeles Market",
    "region": "West",
    "city": "Phoenix",
    "address": "38700 Amalia Hills",
    "sqft": 78234,
    "openDate": "2020-12-24",
    "manager": "Marion Hammes",
    "status": "maintenance",
    "lat": -67.8089,
    "lng": 50.9687
  },
  {
    "id": "ST0439",
    "name": "HyperRetail Los Angeles Plaza",
    "region": "North",
    "city": "Phoenix",
    "address": "86340 Springfield Road",
    "sqft": 149038,
    "openDate": "2019-10-09",
    "manager": "Salvador Becker",
    "status": "active",
    "lat": 68.5808,
    "lng": 44.1178
  },
  {
    "id": "ST0440",
    "name": "HyperRetail Philadelphia Plaza",
    "region": "Central",
    "city": "Philadelphia",
    "address": "592 Well Lane",
    "sqft": 92127,
    "openDate": "2017-05-29",
    "manager": "Candice Blick-Lockman",
    "status": "active",
    "lat": -1.2994,
    "lng": 51.3996
  },
  {
    "id": "ST0441",
    "name": "HyperRetail Los Angeles Center",
    "region": "Central",
    "city": "Dallas",
    "address": "64339 Schmitt Courts",
    "sqft": 101954,
    "openDate": "2021-07-11",
    "manager": "Hazel Torphy",
    "status": "active",
    "lat": -77.0435,
    "lng": 148.9419
  },
  {
    "id": "ST0442",
    "name": "HyperRetail Chicago Market",
    "region": "West",
    "city": "Chicago",
    "address": "8401 Manchester Road",
    "sqft": 88457,
    "openDate": "2018-02-15",
    "manager": "Pauline Abshire",
    "status": "active",
    "lat": 88.083,
    "lng": 170.1456
  },
  {
    "id": "ST0443",
    "name": "HyperRetail New York Center",
    "region": "West",
    "city": "Los Angeles",
    "address": "3982 Juvenal Parkway",
    "sqft": 82706,
    "openDate": "2021-10-20",
    "manager": "Luis Schulist",
    "status": "active",
    "lat": -51.3784,
    "lng": 58.1728
  },
  {
    "id": "ST0444",
    "name": "HyperRetail San Diego Plaza",
    "region": "North",
    "city": "New York",
    "address": "6258 Trystan Canyon",
    "sqft": 87404,
    "openDate": "2025-01-07",
    "manager": "Ollie Sawayn",
    "status": "maintenance",
    "lat": -41.67,
    "lng": -109.7803
  },
  {
    "id": "ST0445",
    "name": "HyperRetail San Antonio Market",
    "region": "East",
    "city": "Los Angeles",
    "address": "538 Henry Street",
    "sqft": 83612,
    "openDate": "2021-07-31",
    "manager": "Roy Casper",
    "status": "active",
    "lat": -5.2587,
    "lng": 63.1917
  },
  {
    "id": "ST0446",
    "name": "HyperRetail San Diego Market",
    "region": "Central",
    "city": "Philadelphia",
    "address": "60041 Wyman Crossroad",
    "sqft": 29879,
    "openDate": "2018-03-24",
    "manager": "Domingo West",
    "status": "active",
    "lat": 37.0783,
    "lng": 135.1308
  },
  {
    "id": "ST0447",
    "name": "HyperRetail Chicago Center",
    "region": "South",
    "city": "Phoenix",
    "address": "5381 Reynolds Heights",
    "sqft": 40039,
    "openDate": "2020-11-23",
    "manager": "Marion Dickens",
    "status": "maintenance",
    "lat": 34.933,
    "lng": 62.7073
  },
  {
    "id": "ST0448",
    "name": "HyperRetail Philadelphia Center",
    "region": "South",
    "city": "New York",
    "address": "6212 Cary Meadow",
    "sqft": 67160,
    "openDate": "2021-10-20",
    "manager": "Daisy Borer",
    "status": "active",
    "lat": 0.3312,
    "lng": -117.0768
  },
  {
    "id": "ST0449",
    "name": "HyperRetail San Diego Market",
    "region": "Central",
    "city": "Philadelphia",
    "address": "7632 Solon Wall",
    "sqft": 23146,
    "openDate": "2022-12-19",
    "manager": "Wilma O'Conner",
    "status": "active",
    "lat": -57.0295,
    "lng": 111.6933
  },
  {
    "id": "ST0450",
    "name": "HyperRetail Philadelphia Center",
    "region": "East",
    "city": "Chicago",
    "address": "181 Solon Bridge",
    "sqft": 109183,
    "openDate": "2018-12-08",
    "manager": "Megan Murazik",
    "status": "active",
    "lat": 13.0334,
    "lng": -11.1456
  },
  {
    "id": "ST0451",
    "name": "HyperRetail Phoenix Center",
    "region": "South",
    "city": "Philadelphia",
    "address": "56493 Antonetta Park",
    "sqft": 31637,
    "openDate": "2021-08-02",
    "manager": "Pearl Funk",
    "status": "active",
    "lat": -35.1291,
    "lng": -5.308
  },
  {
    "id": "ST0452",
    "name": "HyperRetail San Antonio Center",
    "region": "Central",
    "city": "Houston",
    "address": "21017 Dietrich Knolls",
    "sqft": 109710,
    "openDate": "2023-12-12",
    "manager": "Angie Cormier",
    "status": "active",
    "lat": -23.8125,
    "lng": 9.7734
  },
  {
    "id": "ST0453",
    "name": "HyperRetail Los Angeles Center",
    "region": "South",
    "city": "New York",
    "address": "8672 Jaiden Dam",
    "sqft": 45148,
    "openDate": "2021-07-06",
    "manager": "Ernestine Spinka IV",
    "status": "active",
    "lat": 64.946,
    "lng": -98.0878
  },
  {
    "id": "ST0454",
    "name": "HyperRetail New York Mall",
    "region": "North",
    "city": "Los Angeles",
    "address": "670 Collier Route",
    "sqft": 103819,
    "openDate": "2016-04-11",
    "manager": "Pat Spinka",
    "status": "active",
    "lat": -43.9162,
    "lng": -119.444
  },
  {
    "id": "ST0455",
    "name": "HyperRetail San Antonio Market",
    "region": "North",
    "city": "Los Angeles",
    "address": "9442 Park Lane",
    "sqft": 84641,
    "openDate": "2017-02-12",
    "manager": "Kristie Mohr III",
    "status": "maintenance",
    "lat": -49.4627,
    "lng": -64.6247
  },
  {
    "id": "ST0456",
    "name": "HyperRetail Chicago Market",
    "region": "East",
    "city": "Dallas",
    "address": "6903 Howard Road",
    "sqft": 92466,
    "openDate": "2021-12-29",
    "manager": "Dr. Jake O'Conner",
    "status": "active",
    "lat": -29.8543,
    "lng": -75.0906
  },
  {
    "id": "ST0457",
    "name": "HyperRetail Dallas Mall",
    "region": "North",
    "city": "Houston",
    "address": "155 Price Locks",
    "sqft": 131003,
    "openDate": "2019-02-27",
    "manager": "Maria Swaniawski",
    "status": "active",
    "lat": -72.8832,
    "lng": -56.5321
  },
  {
    "id": "ST0458",
    "name": "HyperRetail New York Plaza",
    "region": "West",
    "city": "Phoenix",
    "address": "57426 Lodge Close",
    "sqft": 125710,
    "openDate": "2016-03-21",
    "manager": "Wade Schoen Sr.",
    "status": "active",
    "lat": -18.4876,
    "lng": 69.6175
  },
  {
    "id": "ST0459",
    "name": "HyperRetail Houston Plaza",
    "region": "East",
    "city": "Chicago",
    "address": "206 Joanie Streets",
    "sqft": 132721,
    "openDate": "2023-09-13",
    "manager": "Ernesto Littel",
    "status": "active",
    "lat": 84.873,
    "lng": -134.968
  },
  {
    "id": "ST0460",
    "name": "HyperRetail Chicago Plaza",
    "region": "West",
    "city": "Philadelphia",
    "address": "96423 Park Road",
    "sqft": 92992,
    "openDate": "2016-07-12",
    "manager": "Paulette Ziemann",
    "status": "active",
    "lat": 83.0884,
    "lng": -139.3711
  },
  {
    "id": "ST0461",
    "name": "HyperRetail San Diego Center",
    "region": "East",
    "city": "Dallas",
    "address": "3527 Sycamore Drive",
    "sqft": 27329,
    "openDate": "2022-08-01",
    "manager": "Antoinette Okuneva",
    "status": "maintenance",
    "lat": 41.1508,
    "lng": 155.1925
  },
  {
    "id": "ST0462",
    "name": "HyperRetail Houston Market",
    "region": "West",
    "city": "San Diego",
    "address": "3586 Gerlach Forest",
    "sqft": 31004,
    "openDate": "2021-12-27",
    "manager": "Dianna Cormier",
    "status": "active",
    "lat": 61.2797,
    "lng": -2.7513
  },
  {
    "id": "ST0463",
    "name": "HyperRetail San Diego Plaza",
    "region": "West",
    "city": "Los Angeles",
    "address": "8483 Claudia Track",
    "sqft": 27958,
    "openDate": "2018-02-11",
    "manager": "Edgar Rogahn-Cummerata Jr.",
    "status": "active",
    "lat": 50.3157,
    "lng": -94.1662
  },
  {
    "id": "ST0464",
    "name": "HyperRetail Chicago Market",
    "region": "Central",
    "city": "San Antonio",
    "address": "195 Kutch Plaza",
    "sqft": 131227,
    "openDate": "2021-03-07",
    "manager": "Otis Kirlin",
    "status": "active",
    "lat": 7.6636,
    "lng": 2.8431
  },
  {
    "id": "ST0465",
    "name": "HyperRetail Chicago Center",
    "region": "East",
    "city": "Dallas",
    "address": "706 Bruen Groves",
    "sqft": 113680,
    "openDate": "2022-11-25",
    "manager": "Charlie Heaney PhD",
    "status": "active",
    "lat": -40.5364,
    "lng": 115.431
  },
  {
    "id": "ST0466",
    "name": "HyperRetail San Diego Plaza",
    "region": "North",
    "city": "Houston",
    "address": "561 Smith Street",
    "sqft": 58745,
    "openDate": "2025-09-28",
    "manager": "Anne McClure MD",
    "status": "active",
    "lat": 74.9958,
    "lng": 46.9613
  },
  {
    "id": "ST0467",
    "name": "HyperRetail San Diego Center",
    "region": "West",
    "city": "Houston",
    "address": "7061 N Locust Street",
    "sqft": 83600,
    "openDate": "2019-01-29",
    "manager": "Miss Tonya Renner",
    "status": "active",
    "lat": -76.6483,
    "lng": -20.0332
  },
  {
    "id": "ST0468",
    "name": "HyperRetail Los Angeles Market",
    "region": "Central",
    "city": "New York",
    "address": "889 Sherman Well",
    "sqft": 125357,
    "openDate": "2023-09-25",
    "manager": "Jennifer Zieme",
    "status": "active",
    "lat": -35.1765,
    "lng": 60.487
  },
  {
    "id": "ST0469",
    "name": "HyperRetail Los Angeles Plaza",
    "region": "West",
    "city": "Philadelphia",
    "address": "99386 County Road",
    "sqft": 120304,
    "openDate": "2019-08-01",
    "manager": "Alvin Ebert",
    "status": "active",
    "lat": -36.7519,
    "lng": -115.6172
  },
  {
    "id": "ST0470",
    "name": "HyperRetail Dallas Market",
    "region": "Central",
    "city": "Houston",
    "address": "3046 Ambrose Roads",
    "sqft": 140417,
    "openDate": "2016-02-14",
    "manager": "Gabriel Stoltenberg",
    "status": "active",
    "lat": -73.3916,
    "lng": -123.3952
  },
  {
    "id": "ST0471",
    "name": "HyperRetail San Diego Center",
    "region": "South",
    "city": "Philadelphia",
    "address": "638 Ignatius Islands",
    "sqft": 137153,
    "openDate": "2024-09-12",
    "manager": "Sergio Bauch",
    "status": "active",
    "lat": -31.3954,
    "lng": 139.0928
  },
  {
    "id": "ST0472",
    "name": "HyperRetail San Jose Market",
    "region": "West",
    "city": "Dallas",
    "address": "93161 Kaylin Brook",
    "sqft": 136217,
    "openDate": "2021-04-30",
    "manager": "Floyd Kessler",
    "status": "active",
    "lat": -51.6791,
    "lng": -120.7016
  },
  {
    "id": "ST0473",
    "name": "HyperRetail San Diego Center",
    "region": "West",
    "city": "Philadelphia",
    "address": "24365 Beech Grove",
    "sqft": 22606,
    "openDate": "2024-05-09",
    "manager": "Dr. Gregory Schulist",
    "status": "active",
    "lat": 45.5964,
    "lng": -111.6531
  },
  {
    "id": "ST0474",
    "name": "HyperRetail San Diego Plaza",
    "region": "West",
    "city": "San Diego",
    "address": "2680 Poplar Avenue",
    "sqft": 129438,
    "openDate": "2018-01-19",
    "manager": "Vickie Herzog",
    "status": "active",
    "lat": -84.3398,
    "lng": 51.4088
  },
  {
    "id": "ST0475",
    "name": "HyperRetail San Diego Center",
    "region": "Central",
    "city": "Dallas",
    "address": "4771 Hand Trail",
    "sqft": 146660,
    "openDate": "2020-07-20",
    "manager": "Felix Mayert DDS",
    "status": "active",
    "lat": 83.6443,
    "lng": -75.0283
  },
  {
    "id": "ST0476",
    "name": "HyperRetail New York Mall",
    "region": "North",
    "city": "San Jose",
    "address": "255 Luettgen Loaf",
    "sqft": 116151,
    "openDate": "2024-11-21",
    "manager": "Myra Rogahn",
    "status": "active",
    "lat": 21.7474,
    "lng": -69.7539
  },
  {
    "id": "ST0477",
    "name": "HyperRetail San Diego Market",
    "region": "East",
    "city": "New York",
    "address": "812 Orchard Lane",
    "sqft": 95711,
    "openDate": "2016-06-21",
    "manager": "Miss Jan Johns",
    "status": "active",
    "lat": -28.0837,
    "lng": -84.7262
  },
  {
    "id": "ST0478",
    "name": "HyperRetail Chicago Center",
    "region": "Central",
    "city": "New York",
    "address": "165 Powlowski Camp",
    "sqft": 123453,
    "openDate": "2025-07-07",
    "manager": "Billie Ruecker",
    "status": "active",
    "lat": -87.1464,
    "lng": 122.6827
  },
  {
    "id": "ST0479",
    "name": "HyperRetail New York Plaza",
    "region": "South",
    "city": "Houston",
    "address": "3245 Amya Ville",
    "sqft": 38795,
    "openDate": "2023-08-06",
    "manager": "Lamar Kautzer",
    "status": "closed",
    "lat": -80.1568,
    "lng": 19.461
  },
  {
    "id": "ST0480",
    "name": "HyperRetail Phoenix Market",
    "region": "North",
    "city": "New York",
    "address": "75991 Austyn Junctions",
    "sqft": 75194,
    "openDate": "2018-10-03",
    "manager": "Darryl Schoen",
    "status": "active",
    "lat": -64.5973,
    "lng": 165.454
  },
  {
    "id": "ST0481",
    "name": "HyperRetail New York Mall",
    "region": "Central",
    "city": "Houston",
    "address": "86595 Mona Plaza",
    "sqft": 95379,
    "openDate": "2025-01-14",
    "manager": "Lindsay Cruickshank",
    "status": "active",
    "lat": 55.0544,
    "lng": -71.5568
  },
  {
    "id": "ST0482",
    "name": "HyperRetail San Jose Mall",
    "region": "South",
    "city": "Philadelphia",
    "address": "2070 Thelma Plaza",
    "sqft": 36721,
    "openDate": "2024-03-30",
    "manager": "Maryann Champlin III",
    "status": "active",
    "lat": -45.5029,
    "lng": 23.4117
  },
  {
    "id": "ST0483",
    "name": "HyperRetail San Diego Center",
    "region": "South",
    "city": "San Jose",
    "address": "685 Adrianna Parkways",
    "sqft": 30523,
    "openDate": "2024-12-13",
    "manager": "Dr. Ramon Ratke",
    "status": "closed",
    "lat": 22.4461,
    "lng": 10.0203
  },
  {
    "id": "ST0484",
    "name": "HyperRetail Chicago Market",
    "region": "South",
    "city": "Dallas",
    "address": "67354 Vicarage Road",
    "sqft": 52362,
    "openDate": "2022-11-04",
    "manager": "Delia Fay",
    "status": "active",
    "lat": -28.6114,
    "lng": 47.0013
  },
  {
    "id": "ST0485",
    "name": "HyperRetail Dallas Center",
    "region": "Central",
    "city": "Phoenix",
    "address": "9460 Shane Pine",
    "sqft": 21691,
    "openDate": "2022-12-17",
    "manager": "Micheal Jacobs",
    "status": "active",
    "lat": 76.3594,
    "lng": 0.1072
  },
  {
    "id": "ST0486",
    "name": "HyperRetail New York Center",
    "region": "East",
    "city": "Houston",
    "address": "3294 O'Hara View",
    "sqft": 114527,
    "openDate": "2023-10-17",
    "manager": "Denise Steuber",
    "status": "active",
    "lat": -47.9555,
    "lng": -112.8318
  },
  {
    "id": "ST0487",
    "name": "HyperRetail Chicago Mall",
    "region": "North",
    "city": "Dallas",
    "address": "59633 Georgette Common",
    "sqft": 148793,
    "openDate": "2018-08-21",
    "manager": "Mrs. Ginger Gerhold",
    "status": "active",
    "lat": -49.8438,
    "lng": -30.5231
  },
  {
    "id": "ST0488",
    "name": "HyperRetail New York Center",
    "region": "North",
    "city": "Phoenix",
    "address": "5235 Fritsch Passage",
    "sqft": 142270,
    "openDate": "2019-04-19",
    "manager": "Raymond Murray",
    "status": "maintenance",
    "lat": -21.3936,
    "lng": 14.755
  },
  {
    "id": "ST0489",
    "name": "HyperRetail Phoenix Center",
    "region": "West",
    "city": "Philadelphia",
    "address": "8899 Ethan Knoll",
    "sqft": 92890,
    "openDate": "2021-11-27",
    "manager": "Tara Cassin",
    "status": "active",
    "lat": -52.8835,
    "lng": -167.1242
  },
  {
    "id": "ST0490",
    "name": "HyperRetail Dallas Center",
    "region": "North",
    "city": "San Antonio",
    "address": "2696 Johnson Street",
    "sqft": 81241,
    "openDate": "2017-02-20",
    "manager": "Miriam Kessler",
    "status": "active",
    "lat": -66.2862,
    "lng": -12.7118
  },
  {
    "id": "ST0491",
    "name": "HyperRetail San Antonio Market",
    "region": "Central",
    "city": "San Antonio",
    "address": "88401 2nd Street",
    "sqft": 35387,
    "openDate": "2022-10-18",
    "manager": "Mr. Rickey Schamberger",
    "status": "active",
    "lat": -0.7823,
    "lng": -131.3132
  },
  {
    "id": "ST0492",
    "name": "HyperRetail Phoenix Center",
    "region": "East",
    "city": "Phoenix",
    "address": "61814 Effie Drives",
    "sqft": 21886,
    "openDate": "2025-09-25",
    "manager": "Dana Halvorson",
    "status": "closed",
    "lat": -57.0717,
    "lng": -110.2619
  },
  {
    "id": "ST0493",
    "name": "HyperRetail Phoenix Mall",
    "region": "Central",
    "city": "Houston",
    "address": "15870 Water Lane",
    "sqft": 62740,
    "openDate": "2016-11-29",
    "manager": "Casey Little",
    "status": "active",
    "lat": -11.5678,
    "lng": -40.662
  },
  {
    "id": "ST0494",
    "name": "HyperRetail Chicago Center",
    "region": "South",
    "city": "New York",
    "address": "1740 Langworth Tunnel",
    "sqft": 93345,
    "openDate": "2024-10-12",
    "manager": "Elena Ebert",
    "status": "active",
    "lat": 80.0941,
    "lng": -66.0231
  },
  {
    "id": "ST0495",
    "name": "HyperRetail Phoenix Mall",
    "region": "East",
    "city": "Los Angeles",
    "address": "528 Ilene Rapid",
    "sqft": 83780,
    "openDate": "2020-12-31",
    "manager": "Terence Wunsch",
    "status": "active",
    "lat": -43.6148,
    "lng": -30.442
  },
  {
    "id": "ST0496",
    "name": "HyperRetail Dallas Mall",
    "region": "East",
    "city": "Houston",
    "address": "82784 Alvena Well",
    "sqft": 60243,
    "openDate": "2024-07-10",
    "manager": "Sadie Huels",
    "status": "active",
    "lat": 55.0216,
    "lng": 137.0342
  },
  {
    "id": "ST0497",
    "name": "HyperRetail San Antonio Mall",
    "region": "West",
    "city": "Philadelphia",
    "address": "1606 Odessa Port",
    "sqft": 78080,
    "openDate": "2024-08-12",
    "manager": "Evelyn Jenkins",
    "status": "active",
    "lat": -11.476,
    "lng": 76.3459
  },
  {
    "id": "ST0498",
    "name": "HyperRetail San Jose Plaza",
    "region": "North",
    "city": "New York",
    "address": "93268 Salma Path",
    "sqft": 120428,
    "openDate": "2024-11-16",
    "manager": "Ms. Ann Rempel",
    "status": "active",
    "lat": 85.9362,
    "lng": -58.6073
  },
  {
    "id": "ST0499",
    "name": "HyperRetail New York Mall",
    "region": "East",
    "city": "Los Angeles",
    "address": "53593 Memorial Drive",
    "sqft": 26282,
    "openDate": "2022-03-12",
    "manager": "Homer Turcotte",
    "status": "active",
    "lat": -63.881,
    "lng": -42.6928
  },
  {
    "id": "ST0500",
    "name": "HyperRetail San Jose Plaza",
    "region": "Central",
    "city": "San Antonio",
    "address": "779 Gottlieb Grove",
    "sqft": 143528,
    "openDate": "2024-02-11",
    "manager": "Amanda Pouros",
    "status": "active",
    "lat": 70.8794,
    "lng": 117.5233
  }
]